name,country,latitude,longitude,Street Adress,price_level,rating,user_ratings_total
Sonic Drive-In,US,29.814697,-90.81474200000001,"800 N Canal Blvd, Thibodaux, LA 70301",1,4.3,479
Taco Bell,US,35.803788,-83.58055300000001,"206 Wears Valley Rd, Pigeon Forge, TN 37863",1,3.3,1029
Arby's,US,35.782339,-83.551408,"3652 Parkway, Pigeon Forge, TN 37863",1,3.9,1620
Steak 'n Shake,US,33.562738,-84.321143,"2118 Mt Zion Parkway, Morrow, GA 30260",1,3.4,5287
Wendy's,US,42.368823,-83.138251,"9768 Grand River Ave, Detroit, MI 48204",1,3.6,1560
Burger King,US,42.416819,-83.180444,"13600 W McNichols Rd, Detroit, MI 48235",1,3.1,831
Chipotle Mexican Grill,US,33.205721999999994,-117.28864499999999,"4111 Oceanside Blvd, Oceanside, CA 92056",1,3.9,249
7-Eleven,US,40.937359,-72.650142,"162 Old Country Rd, Riverhead, NY 11901",1,3.8,445
Dairy Queen,US,31.580721,-102.89145500000001,"1407 S Stockton Ave, Monahans, TX 79756",,4.5,
Dairy Queen,US,32.36602,-96.103364,"208 W Mason St, Mabank, TX 75147",1,3.8,404
Dairy Queen,US,29.570078999999996,-95.568166,"5801 Highway 6, Missouri City, TX 77459",2,4,586
,US,41.005682,-81.555774,"3454 Manchester Rd, Akron, OH 44319",1,4.6,1740
Golden Chick,US,32.401088,-98.790162,"1500 E Main St, Eastland, TX 76448",1,4.1,419
Carl's Jr.,US,34.133291,-117.924566,"1190 W Foothill Blvd, Azusa, CA 91702",1,3.6,381
Checkers,US,33.026571999999994,-80.169733,"601 N Main St, Summerville, SC 29483",1,3.8,2143
Rally's,US,41.627297999999996,-83.502436,"1927 Woodville Road, Oregon, OH 43616",1,3.7,977
,US,33.955923,-118.39644299999999,"6316 W 89th St, Los Angeles, CA 90045",,4.4,
Rally's,US,32.282328,-90.11676999999999,"3105 Highway 80 E, Pearl, MS 39208",1,4.1,601
Checkers,US,42.91147,-85.56812,"2860 E Paris Ave SE, Grand Rapids, MI 49512",1,3,813
Rally's,US,39.523703999999995,-85.743659,"2424 E State Road 44, Shelbyville, IN 46176",1,3.8,411
Checkers,US,40.685506,-73.914457,"1611 Broadway, Brooklyn, NY 11207",1,3.8,481
Checkers,US,33.475291999999996,-81.99594599999999,"1720 Walton Way, Augusta, GA 30904",1,3.3,689
Checkers,US,42.400037,-83.21574,"17620 Grand River Ave, Detroit, MI 48227",1,3.8,1331
,US,42.405651,-71.14211999999999,"196 Massachusetts Ave, Arlington, MA 2474",2,4.3,240
McDonald's,US,42.79792,-73.924364,"1224 State St, Schenectady, NY 12304",1,3.4,1441
McDonald's,US,41.967079,-73.98858299999999,"1232 Ulster Ave, Kingston, NY 12401",1,3.7,708
McDonald's,US,40.757558,-73.98167099999999,"1188 Avenue of The Americas, New York, NY 10036",2,4.1,1005
McDonald's,US,40.718942999999996,-73.98830600000001,"114 Delancey St, New York, NY 10002",,4.8,
McDonald's,US,40.709646,-73.591453,"1050 Front St, Uniondale, NY 11553",2,4.1,218
McDonald's,US,40.780233,-73.55934,"105 Jericho Tpke, Jericho, NY 11753",1,3.8,513
McDonald's,US,42.716812,-73.80931899999999,"106 Wolf Rd, Albany, NY 12205",2,4,118
McDonald's,US,40.839569,-73.915927,"101 E 170th St, Bronx, NY 10452",,3.9,
McDonald's,US,42.741061,-73.913673,"103 Brookview Dr, Schenectady, NY 12303",1,3,511
McDonald's,US,42.857898999999996,-78.825089,"1028 Mckinley Pkwy, Buffalo, NY 14220",2,4.2,124
McDonald's,US,43.021019,-78.878167,"10 Main St, Tonawanda, NY 14150",2,4.1,867
McDonald's,US,42.503903,-71.13274799999999,"300 Mishawum Rd, Woburn, MA 1801",1,4.3,192
McDonald's,US,42.125526,-71.64591300000001,"1190 Providence Rd, Whitinsville, MA 1588",1,3.6,636
McDonald's,US,42.557448,-71.181499,"212 Main St, Wilmington, MA 1887",1,3.7,405
McDonald's,US,42.055826,-71.873999,"44 E Main St, Webster, MA 1570",1,3.3,1023
McDonald's,US,42.376247,-71.241667,"789 Main St, Waltham, MA 2451",1,3.7,1115
McDonald's,US,42.650503,-71.662674,"20 Main St, Townsend, MA 1469",1,4.3,339
McDonald's,US,42.157222,-71.243549,"595 Main St, Walpole, MA 2081",1,3.5,370
McDonald's,US,41.88896,-71.120789,"282 Winthrop St, Taunton, MA 2780",1,3.8,280
McDonald's,US,42.12193,-72.584242,"660 Liberty St, Springfield, MA 1104",1,3.8,829
McDonald's,US,42.091561,-72.579647,"360 Main St, Springfield, MA 1105",,4.1,
McDonald's,US,42.111552,-72.603359,"2392 Main St, Springfield, MA 1107",1,4.1,487
McDonald's,US,42.095053,-72.512539,"1402 Allen St, Springfield, MA 1118",1,3.5,841
McDonald's,US,42.142989,-72.48923,"1610 Boston Rd, Springfield, MA 1129",2,4,612
McDonald's,US,42.23341,-72.012516,"59 W Main St, Spencer, MA 1562",1,3.5,846
Five Guys,US,25.754984,-80.36805799999999,"1433 SW 107th Ave, Miami, FL 33174",,0,
Taco Bell,US,33.007329,-96.55412700000001,"1601 W Kirby St, Wylie, TX 75098",1,3.5,680
Taco Bell,US,32.274786,-95.30675699999999,"7425 S Broadway Ave, Tyler, TX 75703",1,4.2,953
Burger King,US,38.964944,-92.336364,"100 Business Loop 70 E, Columbia, MO 65203",1,3.2,696
Wendy's,US,32.070343,-81.10103199999999,"615 Martin Luther King Jr Blvd, Savannah, GA 31401",1,3.9,1680
Wendy's,US,33.95111,-84.518962,"1123 Roswell Rd, Marietta, GA 30062",1,3.2,951
Wendy's,US,33.446887,-84.138326,"273 Keys Ferry St, McDonough, GA 30253",1,3.1,1076
Wendy's,US,33.792747999999996,-83.731443,"1117 W Spring St, Monroe, GA 30655",1,3.5,493
Wendy's,US,33.486344,-82.13351,"430 S Belair Rd, Augusta, GA 30907",1,3.6,1065
Wendy's,US,33.108582,-83.254192,"2341 N Columbia St, Milledgeville, GA 31061",1,3.7,782
Wendy's,US,33.880381,-83.939657,"260 Cooper Rd, Loganville, GA 30052",1,3.3,728
Wendy's,US,33.839726,-83.905798,"4331 Atlanta Hwy, Loganville, GA 30052",2,3.7,767
Wendy's,US,33.699521999999995,-84.17274,"3015 Panola Rd, Lithonia, GA 30038",1,3.5,1400
Burger King,US,42.547923,-70.942014,"184 Endicott St, Danvers, MA 1923",1,3.6,482
,US,42.140526,-72.50086999999999,"1291 Boston Rd, Springfield, MA 1119",2,4.2,283
McDonald's,US,41.157059000000004,-81.219054,"6134 State Route 14, Ravenna, OH 44266",1,3.5,571
Boston Market,US,32.679466999999995,-97.195027,"4402 Little Rd, Arlington, TX 76016",1,4.3,1858
,US,41.92023235,-71.35787658,"15 Highland Ave, Attleboro, MA 2703",2,4.2,313
Burger King,US,32.739923,-116.94215600000001,"2992 Jamacha Rd, El Cajon, CA 92019",1,3.9,100
Boston Market,US,32.80827,-116.97137,"706 Fletcher Pkwy, El Cajon, CA 92020",1,3.9,783
Burger King,US,32.805945,-116.971542,"822 N Johnson Ave, El Cajon, CA 92020",1,3.2,935
,US,40.170877000000004,-75.12739300000001,"2819 Easton Rd, Willow Grove, PA 19090",1,4.3,478
Carl's Jr.,US,34.091528000000004,-117.43637,"8924 Sierra Ave, Fontana, CA 92335",1,3.7,998
Carl's Jr.,US,34.16469,-118.52474,"18025 Ventura Blvd, Encino, CA 91316",,4.8,
Burger King,US,33.051949,-117.260994,"242 N El Camino Real, Encinitas, CA 92024",2,4.8,52
Carl's Jr.,US,33.93527552,-118.1238946,"9002 Firestone Blvd, Downey, CA 90241",1,4.7,5488
Carl's Jr.,US,33.91684597,-118.1337577,"9110 Imperial Hwy, Downey, CA 90242",1,3.6,432
,US,32.797188,-117.2525,"962 Garnet Ave, San Diego, CA 92109",,4.2,
Burger King,US,29.880809999999997,-95.683922,"7011 Barker Cypress Rd, Cypress, TX 77433",1,3.5,522
Boston Market,US,37.946878999999996,-122.060174,"2180 Contra Costa Blvd, Pleasant Hill, CA 94523",1,3.8,410
Jack in the Box,US,37.695437,-122.08173500000001,"3035 Castro Valley Blvd, Castro Valley, CA 94546",1,3.6,676
Round Table Pizza,US,37.315903999999996,-121.977843,"4302 Moorpark Ave, San Jose, CA 95129",,4.5,
El Pollo Loco,US,33.894566,-118.220228,"1751 S Alameda St, Compton, CA 90220",1,3.6,721
Arby's,US,32.646857000000004,-116.967527,"2244 Otay Lakes Rd, Chula Vista, CA 91915",1,4.4,691
Burger King,US,39.76117,-121.84218700000001,"962 East Ave, Chico, CA 95926",1,3.9,128
In-N-Out Burger,US,35.1273,-120.598,"1170 W Branch St, Arroyo Grande, CA 93420",1,4.6,2928
,US,33.72118,-116.38791,"73196 Highway 111, Palm Desert, CA 92260",2,4.6,782
Carl's Jr.,US,34.218957,-118.58903000000001,"20900 Roscoe Blvd, Canoga Park, CA 91304",,4.6,
McDonald's,US,36.975287,-121.96392900000001,"1760 41st Ave, Capitola, CA 95010",1,3.5,984
Carl's Jr.,US,34.221478000000005,-119.07024299999999,"401 Las Posas Rd, Camarillo, CA 93010",1,3.8,504
Del Taco,US,34.867566,-117.114747,"2871 Lenwood Rd, Barstow, CA 92311",1,4.5,304
Del Taco,US,34.077713,-117.996169,"12690 Ramona Blvd, Baldwin Park, CA 91706",1,3.6,1206
Little Caesars,US,34.0422696,-117.94934950000001,"1210 N Hacienda Blvd, La Puente, CA 91744",1,4.4,150
McDonald's,US,37.365314,-118.39508000000001,"562 N Main St, Bishop, CA 93514",1,3.4,1212
McDonald's,US,32.07128,-84.216974,"1310 E Lamar St, Americus, GA 31709",1,3.8,467
Burger King,US,34.54701,-82.6319,"2009 E Greenville St, Anderson, SC 29621",1,3.5,521
Carl's Jr.,US,34.088183,-118.15143700000002,"2521 W Commonwealth Ave, Alhambra, CA 91803",2,4.2,2151
Sbarro,US,33.46734,-82.07989,"3450 Wrightsboro Rd Ste 2340, Augusta, GA 30909",1,3.5,569
,US,39.321895,-88.451273,"810 Oak Ave, Neoga, IL 62447",1,3.8,82
,US,38.983809,-88.161001,"701 S Van Buren St, Newton, IL 62448",,4.5,
Chipotle Mexican Grill,US,34.23765,-118.58918999999999,"9175 De Soto Ave, Chatsworth, CA 91311",1,4.4,216
McDonald's,US,34.017911,-85.253614,"328 N Main St, Cedartown, GA 30125",1,3.3,161
Burger King,US,41.726353,-72.61760799999999,"3025 Main St, Glastonbury, CT 6033",2,4.1,656
Boston Market,US,41.720514,-72.614164,"2834 Main St, Glastonbury, CT 6033",1,3.8,131
McDonald's,US,37.346447,-85.33736800000001,"605 E Broadway St, Campbellsville, KY 42718",1,3.8,364
SUBWAY,US,37.357213,-85.323654,"1602 E Broadway St, Campbellsville, KY 42718",1,4.2,157
Burger King,US,38.259527,-122.062146,"1475 Holiday Ln, Fairfield, CA 94534",1,4.4,120
,US,38.4791,-82.6411,"1442 Winchester Ave, Ashland, KY 41101",1,4.3,1384
Dairy Queen,US,38.3887,-82.7156,"12759 Us Route 60, Ashland, KY 41102",1,4.2,513
Pizza Hut,US,27.4357,-80.32600000000001,"1439 S US Highway 1, Fort Pierce, FL 34950",2,4.3,774
Arby's,US,28.534187,-82.516103,"12915 Cortez Blvd, Brooksville, FL 34613",,0,
McDonald's,US,27.06168,-80.13746,"11671 Se Federal Hwy, Hobe Sound, FL 33455",1,3.7,713
Culver's,US,30.403771999999996,-86.85506,"8792 Navarre Pkwy, Navarre, FL 32566",1,4.3,2898
Burger King,US,25.867613000000002,-80.266376,"825 E 49th St, Hialeah, FL 33013",1,3.9,2383
Pizza Hut,US,25.882938,-80.33868000000001,"2750 W 68th St Ste 104, Hialeah, FL 33016",,4.5,
Dairy Queen,US,28.125757,-81.64043000000001,"36172 Hwy 27, Haines City, FL 33844",1,4,508
Pizza Hut,US,29.961740000000002,-81.49109,"52 Tuscan Way Ste 208, Saint Augustine, FL 32092",2,3.5,148
KFC,US,28.8829,-81.2413,"1232 Providence Blvd, Deltona, FL 32725",1,2.9,724
McDonald's,US,30.687820000000002,-86.12318,"2370 US Highway 331 S, DeFuniak Springs, FL 32435",1,3.4,3008
Sonic Drive-In,US,30.70032,-86.12317,"1508 US Highway 331 S, DeFuniak Springs, FL 32435",1,3.8,1229
Whataburger,US,30.68693,-86.12329,"2434 US Highway 331 S, DeFuniak Springs, FL 32435",1,4,3470
Arby's,US,26.432003,-81.789408,"9975 Corkscrew Rd, Estero, FL 33928",1,3.9,663
Chick-Fil-A,US,27.928096999999998,-82.324836,"519 Brandon Town Center Mall, Brandon, FL 33511",1,4.1,138
Taco Bell,US,26.675109999999997,-80.67,"865 S Main St, Belle Glade, FL 33430",1,3.5,318
McDonald's,US,27.596742,-81.494029,"339 US Highway 27 S, Avon Park, FL 33825",2,4.5,327
Pizza Hut,US,27.56904,-81.81521,"1498 US Highway 17 N, Wauchula, FL 33873",1,3.6,369
Firehouse Subs,US,28.68587218,-81.53919026,"1608 W Orange Blossom Trl, Apopka, FL 32712",1,4.1,197
Burger King,US,32.135603,-81.20824300000001,"460 Airways Ave, Savannah, GA 31408",1,2.8,30
Sonic Drive-In,US,37.08012,-97.03938000000001,"1510 N Summit St, Arkansas City, KS 67005",1,4.1,596
McDonald's,US,37.77885,-100.01663,"2613 Central Ave, Dodge City, KS 67801",1,3.7,784
Burger King,US,41.704627,-93.580975,"2501 Se Delaware Ave, Ankeny, IA 50021",1,4,1141
,US,20.8874,-156.4698,"134 W Kamehameha Ave, Kahului, HI 96732",1,4.5,530
Chick-Fil-A,US,42.02045,-93.60967,"230 S Duff Ave, Ames, IA 50010",1,4.5,1701
Burger King,US,42.035109999999996,-93.57344,"2817 E 13th St, Ames, IA 50010",1,4.1,194
Burger King,US,41.732374,-93.582329,"1020 E 1st St, Ankeny, IA 50021",1,4.2,682
Pizza Hut,US,43.580339,-116.21310600000001,"2450 S Vista Ave, Boise, ID 83705",2,4.5,534
Burger King,US,36.09503,-79.408,"1807 N Church St, Burlington, NC 27217",1,3.4,588
Dairy Queen,US,41.548648,-90.504798,"2535 18th St, Bettendorf, IA 52722",2,4.3,436
McDonald's,US,35.16361,-80.96889,"9320 Steele Creek Rd, Charlotte, NC 28273",1,3.5,1537
Burger King,US,34.425812,-117.378018,"9640 Mariposa Rd, Hesperia, CA 92344",1,4.1,1639
Burger King,US,34.419638,-117.291579,"17021 Main St, Hesperia, CA 92345",1,3.7,798
Del Taco,US,33.899881,-118.36165700000001,"14485 Inglewood Ave, Hawthorne, CA 90250",1,3.6,579
Del Taco,US,34.264517,-118.52678200000001,"18070 Chatsworth St, Granada Hills, CA 91344",2,4.3,329
Arby's,US,39.158375,-75.550267,"1200 Forrest Ave, Dover, DE 19904",1,4.2,839
McDonald's,US,34.685340000000004,-82.19726999999999,"300 Mccarter Rd, Fountain Inn, SC 29644",1,3.5,1336
Burger King,US,40.33873,-76.447826,"2040 Cumberland St, Lebanon, PA 17042",1,3.7,567
Chipotle Mexican Grill,US,40.31787,-76.42396,"1451 Quentin Rd, Lebanon, PA 17042",1,3.3,679
Taco Bell,US,39.81718,-75.45715,"609 Naamans Rd, Claymont, DE 19703",1,2.6,451
Pizza Hut,US,33.30628,-111.94408999999999,"5800 W Chandler Blvd, Chandler, AZ 85226",2,4.5,1815
McDonald's,US,44.49541,-89.51668000000001,"1205 Commons Cir, Plover, WI 54467",1,3.6,899
Arby's,US,39.697205,-104.82432299999999,"1099 S Blackhawk St, Aurora, CO 80012",1,3.9,1350
,US,37.777429999999995,-89.02603,"406 N Pershing St, Energy, IL 62933",1,4.7,689
,US,36.441759999999995,-94.114426,"201 Lee Town Rd, Pea Ridge, AR 72751",1,1.3,3
Arby's,US,36.594351,-87.287425,"3067 Wilma Rudolph Blvd, Clarksville, TN 37040",1,4.3,1491
Dairy Queen,US,40.901990000000005,-81.12966,"1635 W State St, Alliance, OH 44601",1,4.2,622
,US,34.623000000000005,-92.50348000000001,"5311 Highway 5 N Ste 240, Bryant, AR 72022",2,3.6,50
Burger King,US,34.623419,-92.499052,"3001 N Reynolds Rd, Bryant, AR 72022",1,3.9,689
Burger King,US,35.192109,-111.624197,"2275 E Butler Ave, Flagstaff, AZ 86004",2,4.4,2489
Arby's,US,44.31095,-96.77414,"1818 6th St, Brookings, SD 57006",1,4.2,426
KFC,US,33.415079999999996,-111.57883999999999,"3051 W Apache Trl, Apache Junction, AZ 85120",1,3.9,930
Burger King,US,37.28415,-81.25128000000001,"Route 52 Airport Square, Bluefield, WV 24701",1,3.9,489
Bob Evans Restaurant,US,37.793559,-81.217557,"102 Harper Park Dr, Beckley, WV 25801",1,3.9,852
Pizza Hut,US,37.790326,-81.21054699999999,"1912 Harper Rd, Beckley, WV 25801",1,4.2,314
,US,42.17114472,-87.82489848,"1855 Deerfield Rd, Highland Park, IL 60035",2,4.4,114
Burger King,US,38.997749,-80.233242,"3 Clarksburg Rd, Buckhannon, WV 26201",1,4,383
Arby's,US,44.516059999999996,-109.08971000000001,"302 Yellowstone Ave, Cody, WY 82414",1,4.1,409
Burger King,US,44.514590000000005,-109.05084,"1902 Mountain View Dr, Cody, WY 82414",1,3.1,458
Pizza Hut,US,41.16767,-104.828636,"5320 Yellowstone Rd, Cheyenne, WY 82009",1,4,678
,US,35.0492,-89.69906999999999,"1100 Poplar View Ln N, Collierville, TN 38017",1,3.9,246
Arby's,US,35.045609999999996,-89.6942,"967 W Poplar Ave, Collierville, TN 38017",1,4.2,471
Arby's,US,42.82804,-106.354802,"2607 Cy Ave, Casper, WY 82604",1,3.9,419
Arby's,US,35.175914,-89.792333,"1860 N Germantown Pkwy, Cordova, TN 38016",1,4.1,644
SUBWAY,US,45.53751,-100.43688,"310 W Grand Xing, Mobridge, SD 57601",1,4.2,84
Arby's,US,41.303027,-84.36127900000001,"1502 N Clinton St, Defiance, OH 43512",1,3.9,864
Pizza Hut,US,41.301426,-84.36081800000001,"1133 N Clinton St, Defiance, OH 43512",1,3.6,541
Pizza Hut,US,39.783394,-84.006478,"11 W Dayton Yellow Springs Rd, Fairborn, OH 45324",1,3.8,72
Arby's,US,45.459587,-98.469823,"1205 6th Ave Se, Aberdeen, SD 57401",1,3.9,613
McDonald's,US,36.524041,-82.31270699999999,"2260 Highway 394, Blountville, TN 37617",1,3.5,1217
McDonald's,US,36.534114,-82.39005300000001,"214 Carolina Pottery Dr, Blountville, TN 37617",1,3.4,1251
Arby's,US,36.541865,-82.33235,"1313 Highway 394, Blountville, TN 37617",1,4.2,994
Burger King,US,37.568606,-84.31104599999999,"100 Prince Royal Dr, Berea, KY 40403",1,3.5,128
,US,40.66428,-80.62040999999999,"16311 State Route 267, East Liverpool, OH 43920",1,3.9,150
Dairy Queen,US,40.62539,-80.59109000000001,"900 W 8th St, East Liverpool, OH 43920",1,3.7,660
,US,40.73101,-84.07296,"723 Saratoga Ave, Lima, OH 45804",1,4.6,768
Burger King,US,39.58426871,-82.95390414,"23777 Us Route 23, Circleville, OH 43113",1,3.4,713
Burger King,US,41.580901000000004,-81.21016800000001,"414 Water St, Chardon, OH 44024",1,3.9,481
Burger King,US,40.331939,-83.761451,"2005 S Main St, Bellefontaine, OH 43311",1,3.7,325
Burger King,US,41.29553,-81.67674,"2000 E Edgerton Rd, Broadview Heights, OH 44147",1,2.3,59
Burger King,US,41.293022,-81.68467,"10037 Broadview Rd, Broadview Heights, OH 44147",1,2.3,59
,US,44.92456,-91.38189,"475 Chippewa Mall Dr, Chippewa Falls, WI 54729",2,4.2,723
,US,42.63089,-88.63918000000001,"212 S 7th St, Delavan, WI 53115",2,4.2,477
Culver's,US,42.627712,-88.621712,"1931 E Geneva St, Delavan, WI 53115",1,3.1,783
Burger King,US,37.16537,-80.422283,"2680 Market St, Christiansburg, VA 24073",1,3.9,763
Arby's,US,37.166086,-80.422225,"2650 Market St, Christiansburg, VA 24073",1,3.9,763
Burger King,US,37.289041,-78.397491,"1004 S Main St, Farmville, VA 23901",1,3.6,496
,US,38.041290000000004,-78.47775,"1709 Allied Ln, Charlottesville, VA 22903",,4.4,
Little Caesars,US,45.50516,-122.41273000000001,"1835 Ne Division St, Gresham, OR 97030",2,4.2,861
Arby's,US,31.88498,-106.41861200000001,"9575 Dyer St, El Paso, TX 79924",1,4.3,815
Pizza Hut,US,29.331020000000002,-96.09456999999999,"2202 N Richmond Rd, Wharton, TX 77488",1,3.6,261
Burger King,US,33.762134,-96.581587,"3120 W Fm 120, Denison, TX 75020",2,4.4,361
McDonald's,US,26.243395,-98.4423,"1705 Expressway 83, Penitas, TX 78576",1,4.2,565
Burger King,US,28.705740000000002,-100.48395,"2280 E Garrison St, Eagle Pass, TX 78852",1,4.3,446
Chick-Fil-A,US,29.38843,-100.90521,"2207 Veterans Blvd, Del Rio, TX 78840",1,4.4,1445
Burger King,US,30.69488984,-96.36236943,"2208 Highway 21 E, Bryan, TX 77803",1,3.9,487
,US,32.342149,-97.402765,"1216 W Henderson St, Cleburne, TX 76033",1,4.1,1329
Arby's,US,32.563248,-97.322393,"801 Ne Alsbury Blvd, Burleson, TX 76028",1,3.7,1087
Chick-Fil-A,US,32.566362,-97.319315,"1105 N Burleson Blvd, Burleson, TX 76028",2,4.1,1446
Burger King,US,29.70529415,-95.4730184,"5301 Bellaire Blvd, Bellaire, TX 77401",1,4,770
Arby's,US,32.405234,-99.764985,"3824 S Clack St, Abilene, TX 79606",1,4.2,798
Golden Chick,US,28.421414000000002,-97.756843,"2305 N Saint Marys St, Beeville, TX 78102",1,3.4,307
Dairy Queen,US,28.847140999999997,-97.44154,"90571 Main St, Pettus, TX 78146",,4.5,
Pizza Hut,US,28.03704,-97.51219,"210 W Sinton St, Sinton, TX 78387",1,4,278
Chicken Express,US,29.18105,-95.44666,"96 Cannan Dr, Angleton, TX 77515",,5,
McDonald's,US,40.111177000000005,-75.21414399999999,"1890 Bethlehem Pike, Flourtown, PA 19031",1,3.1,703
Arby's,US,39.224652,-76.06993,"707 Washington Ave, Chestertown, MD 21620",1,3.7,269
,US,27.753659999999996,-98.06130999999999,"1201 E Main St, Alice, TX 78332",2,4.1,541
Arby's,US,28.440040000000003,-81.4037,"8586 S Orange Blossom Trl, Orlando, FL 32809",1,3.6,2581
McDonald's,US,39.196115999999996,-76.82101,"6385 Dobbin Rd, Columbia, MD 21045",,4.3,
Burger King,US,39.208926,-76.724769,"6241 Washington Blvd, Elkridge, MD 21075",1,3.3,250
Arby's,US,40.169035,-74.849233,"505 S Oxford Valley Rd, Fairless Hills, PA 19030",1,4.1,556
Arby's,US,40.164651,-76.154297,"888 E Main St, Ephrata, PA 17522",1,4.2,1320
Pizza Hut,US,41.01903,-92.43745,"1247 Theatre Dr, Ottumwa, IA 52501",2,4.2,26
Arby's,US,36.705143,-81.974501,"470 Cummings St, Abingdon, VA 24210",1,4.3,809
,US,38.78022,-77.07939,"6308 Richmond Hwy, Alexandria, VA 22306",2,3.5,1283
,US,40.48025,-78.73658,"1104 W High St, Ebensburg, PA 15931",1,4.2,179
Burger King,US,40.47425,-78.74575,"285 Jamesway Rd, Ebensburg, PA 15931",2,4.4,1163
Arby's,US,42.092031,-80.084087,"4105 Peach St, Erie, PA 16509",1,4.2,519
Arby's,US,42.108354999999996,-80.050799,"3720 Pine Ave, Erie, PA 16504",1,4.2,604
Burger King,US,39.019712,-84.628729,"4868 Houston Rd, Florence, KY 41042",1,3.5,727
Burger King,US,40.509285999999996,-75.385827,"105 S 3rd St, Coopersburg, PA 18036",1,3.7,528
,US,41.20821,-79.36712,"1306 E Main St, Clarion, PA 16214",1,4.7,737
,US,40.26269,-80.13373,"4205 Washington Rd, Canonsburg, PA 15317",1,4.4,278
Pizza Hut,US,40.28079,-80.08363,"453 Valley Brook Rd Ste 200, Canonsburg, PA 15317",,4.6,
Burger King,US,41.049741,-76.252443,"1208 W Front St, Berwick, PA 18603",1,3.9,617
Pizza Hut,US,40.34341,-80.02729000000001,"4960 Library Rd, Bethel Park, PA 15102",1,3.8,171
Burger King,US,38.178962,-84.89459599999999,"9 Hudson Hollow Rd, Frankfort, KY 40601",1,4,524
Pizza Hut,US,47.69445,-122.34243000000001,"1110 N 90th St, Seattle, WA 98103",1,4,8
,US,40.0396,-86.9026,"114 W Wabash Ave, Crawfordsville, IN 47933",2,4.5,913
Arby's,US,40.021575,-86.90334399999999,"1518 S Washington St, Crawfordsville, IN 47933",1,4,671
Pizza Hut,US,42.97331,-88.00820999999999,"3921 S 76th St, Milwaukee, WI 53220",2,4.8,154
,US,41.07553,-111.95069,"1075 N Fairfield Rd, Layton, UT 84041",1,3.8,438
Pizza Hut,US,41.591667,-85.855147,"1607 Elkhart Rd, Goshen, IN 46526",1,3.5,464
Arby's,US,35.077732,-81.70352700000001,"909 Hyatt St, Gaffney, SC 29341",1,3.9,1338
Burger King,US,40.83757,-115.78953999999999,"2460 Mountain City Hwy, Elko, NV 89801",1,3.8,367
,US,40.85103,-115.74498,"2598 Idaho St, Elko, NV 89801",1,3.4,272
McDonald's,US,40.869655,-72.99981700000001,"313 Middle Country Rd, Coram, NY 11727",1,3.5,56
,US,39.095464,-76.837806,"9711 Fort Meade Rd, Laurel, MD 20707",2,3.8,216
Burger King,US,31.579563,-90.459029,"778 Brookway Blvd, Brookhaven, MS 39601",1,3.9,267
,US,42.1439,-77.0583,"92 W Market St, Corning, NY 14830",1,4.1,240
,US,42.13151,-77.03608,"2 Wicks Blvd, Corning, NY 14830",1,4.4,72
Burger King,US,40.689896000000005,-73.408119,"1104 Sunrise Hwy, Amityville, NY 11701",1,4,545
McDonald's,US,34.884512,-82.70476,"425 E Main St, Pickens, SC 29671",1,3.5,1689
McDonald's,US,34.966901,-81.929552,"106 Garner Rd, Spartanburg, SC 29303",1,3.4,1554
Burger King,US,39.037925,-76.678372,"2619 Brandermill Blvd, Gambrills, MD 21054",1,3.5,403
McDonald's,US,34.811406,-79.174756,"613 E 4th Ave, Red Springs, NC 28377",1,3.8,283
Domino's Pizza,US,40.8672,-73.6307,"104 School St, Glen Cove, NY 11542",2,4.5,213
Dairy Queen,US,32.499851,-95.596225,"2789 Interstate Highway 20, Van, TX 75790",1,4.1,684
Dairy Queen,US,28.453428999999996,-96.888108,"111 State Highway 239 E, Tivoli, TX 77990",1,3.9,630
Dairy Queen,US,31.802884000000002,-95.148673,"1301 N Dickinson Dr, Rusk, TX 75785",1,3.7,266
Dairy Queen,US,35.663865,-101.389964,"300 S Main St, Borger, TX 79007",,5,
Dairy Queen,US,29.689434000000002,-97.667085,"900 Highway 80, San Marcos, TX 78666",2,4.3,155
Dairy Queen,US,29.423059999999996,-98.484173,"849 E Commerce St, San Antonio, TX 78205",3,4.4,3479
Dairy Queen,US,29.351346000000003,-98.458339,"2282 SE Military Dr, San Antonio, TX 78223",1,4.1,2530
Hardee's,US,36.875281,-76.038915,"2188 Great Neck Sq, Virginia Beach, VA 23454",1,3.9,70
Hardee's,US,36.869021000000004,-76.291956,"505 W 21st St, Norfolk, VA 23517",2,4.5,40
Hardee's,US,37.585167,-77.496783,"5000 W Broad St, Richmond, VA 23230",1,3.6,1106
Hardee's,US,37.303452,-79.983783,"3011 Hershberger Rd NW, Roanoke, VA 24017",1,3.5,762
Hardee's,US,36.836845000000004,-76.308136,"850 London Blvd, Portsmouth, VA 23704",1,3.7,482
Hardee's,US,37.048369,-80.759749,"1032 E Main St, Pulaski, VA 24301",1,4.6,602
Hardee's,US,36.929187,-76.317875,"8405 Hampton Blvd, Norfolk, VA 23505",1,3.6,407
Hardee's,US,37.131199,-76.532961,"430 Denbigh Blvd, Newport News, VA 23608",1,3.6,522
Hardee's,US,37.365812,-79.172249,"3750 Candlers Mountain Rd, Lynchburg, VA 24502",2,4,845
Hardee's,US,36.752234,-77.852597,"501 S Hicks St, Lawrenceville, VA 23868",1,3.3,316
Hardee's,US,37.412957,-79.173991,"2231 Langhorne Rd, Lynchburg, VA 24501",1,3.5,761
,US,43.590779,-116.365124,"2310 E Overland Rd, Meridian, ID 83642",1,4.3,523
,US,36.121721,-115.243007,"3635 S Rainbow Blvd, Las Vegas, NV 89103",1,4.1,1262
,US,36.1991,-115.281057,"8552 W Lake Mead Blvd, Las Vegas, NV 89128",2,4,159
,US,36.14391,-115.295979,"9101 W Sahara Ave, Las Vegas, NV 89117",1,4.1,90
,US,39.237101,-119.58641000000001,"35 Dayton Valley Rd, Dayton, NV 89403",,4.1,
Taco Bell,US,42.62877,-82.993912,"45201 Schoenherr Rd, Utica, MI 48315",1,3.9,500
Taco Bell,US,42.230907,-83.739813,"3860 S State Rd, Ann Arbor, MI 48108",1,3.5,1104
Taco Bell,US,35.398432,-119.10936399999999,"9640 Hageman Rd, Bakersfield, CA 93312",1,3.8,288
Dairy Queen,US,41.575922999999996,-87.17319599999999,"6255 Central Ave, Portage, IN 46368",2,4.2,460
Dairy Queen,US,38.040812,-87.540047,"6801 Highway 41 N, Evansville, IN 47711",1,4,589
Dairy Queen,US,39.760374,-86.101163,"3826 English Ave, Indianapolis, IN 46201",1,4.1,326
Dairy Queen,US,41.66294,-86.12615,"3303 Lincolnway E, Mishawaka, IN 46544",1,4,658
Dairy Queen,US,37.977571000000005,-87.634586,"4830 University Dr, Evansville, IN 47712",,4.3,
Dairy Queen,US,41.016467999999996,-85.759674,"309 State Road 13 N, North Manchester, IN 46962",,4.4,
Dairy Queen,US,38.346607,-85.797911,"3302 Kamer Miller Rd, New Albany, IN 47150",1,4.1,611
Taco Bell,US,42.283657,-83.36389799999999,"32940 Michigan Ave, Wayne, MI 48184",1,3.5,1019
Dairy Queen,US,39.481538,-88.36445400000001,"913 Charleston Ave, Mattoon, IL 61938",1,3.6,138
Dairy Queen,US,41.953301,-87.767849,"5636 W Irving Park Rd, Chicago, IL 60634",1,3.9,145
Dairy Queen,US,40.737017,-89.026139,"685 W Main St, El Paso, IL 61738",1,4.4,1089
Dairy Queen,US,40.191908000000005,-88.401881,"601 E Oak St, Mahomet, IL 61853",1,4.4,276
McDonald's,US,42.389162,-71.11789,"35 White St, Cambridge, MA 2140",1,4.2,640
,US,42.357,-71.057588,"50 Milk St, Boston, MA 2109",2,4.4,939
McDonald's,US,42.338242,-71.106394,"340 Longwood Ave, Boston, MA 2115",2,3.9,252
Taco Bell,US,42.25059,-83.19532199999999,"2306 Dix Hwy, Lincoln Park, MI 48146",1,3.7,1688
Taco Bell,US,40.80019,-81.511421,"1108 Lincoln Way East, Massillon, OH 44646",1,3.7,935
Taco Bell,US,35.231412,-81.332652,"705 York Road, Kings Mountain, NC 28086",1,3.6,1104
Dairy Queen,US,40.566695,-89.653915,"401 S 2nd St, Pekin, IL 61554",1,3.5,410
Dairy Queen,US,40.738856,-89.602672,"4204 N Sheridan Rd, Peoria, IL 61614",1,4,441
Pei Wei,US,33.334671,-111.79003200000001,"1084 S Gilbert Suite 601, Gilbert, AZ 85296",1,3.8,371
Dairy Queen,US,40.008448,-89.84830799999999,"401 S 6th St, Petersburg, IL 62675",1,4.2,48
Dairy Queen,US,39.819918,-88.883699,"4605 E Maryland St, Decatur, IL 62521",,4.4,
Dairy Queen,US,42.219046999999996,-88.258381,"3106 3 Oaks Rd, Cary, IL 60013",,4.5,
Dairy Queen,US,40.914208,-90.648196,"316 N Main St, Monmouth, IL 61462",1,4.3,333
Dairy Queen,US,37.740922999999995,-88.92539599999999,"201 E Deyoung St, Marion, IL 62959",1,3.8,555
,US,39.987216,-83.04453199999999,"1453 Grandview Ave, Columbus, OH 43212",2,4.5,495
,US,34.136803,-118.215193,"4967 Eagle Rock Blvd, Los Angeles, CA 90041",1,4.2,100
,US,41.986872,-89.578918,"120 N Division Ave, Polo, IL 61064",,4.3,
,US,34.931259999999995,-95.763988,"526 E Carl Albert Pkwy, McAlester, OK 74501",,4.7,
Taco Bueno,US,35.609103999999995,-97.529511,"945 W Memorial Rd, Oklahoma City, OK 73114",1,4,1243
McDonald's,US,30.252668,-92.037149,"1737 N University Ave, Lafayette, LA 70507",1,3.6,212
McDonald's,US,43.176212,-83.887437,"249 E State St, Montrose, MI 48457",1,3.7,98
Wendy's,US,38.781659999999995,-77.51244,"8010 Sudley Rd, Manassas, VA 20109",1,3.9,515
Jimmy John's,US,41.715443,-83.698148,"6385 Monroe St, Sylvania, OH 43560",1,3.9,168
Subway,US,34.203844000000004,-84.809281,"1211 Joe Frank Harris Pkwy SE, Cartersville, GA 30120",1,4.1,238
Subway,US,33.538661,-85.25191600000001,"192 Lovvorn Ave, Bowdon, GA 30108",1,3.7,516
Dairy Queen,US,32.856549,-83.616455,"1185 Gray Hwy, Macon, GA 31211",1,3.9,542
Dairy Queen,US,34.228802,-83.86493399999999,"3156 Frontage Rd, Gainesville, GA 30504",1,3.7,461
Dairy Queen,US,32.618255,-83.618517,"1224 Watson Blvd, Warner Robins, GA 31093",1,4.1,308
Subway,US,31.499615999999996,-84.115596,"1637 Liberty Expy SE, Albany, GA 31705",1,4,207
Subway,US,31.620486,-84.220416,"1103 N Westover Blvd, Albany, GA 31707",2,3.9,1328
Dairy Queen,US,33.054774,-84.15625,"119 Atlanta St, Barnesville, GA 30204",1,4.1,279
Dairy Queen,US,33.572772,-81.938715,"1035 Edgefield Rd, North Augusta, SC 29860",1,4,862
Hardee's,US,30.519652,-87.314643,"2500 Wilde Lake Blvd, Pensacola, FL 32526",1,3.6,1034
Hardee's,US,30.211082,-85.650126,"3439 Highway 77, Panama City, FL 32405",1,3.7,952
Dairy Queen,US,33.860209999999995,-84.309952,"3473 Clairmont Rd NE, Atlanta, GA 30319",1,3.7,353
Dairy Queen,US,33.880324,-84.275398,"2781 Chamblee Tucker Rd, Atlanta, GA 30341",1,3.2,1350
Dairy Queen,US,33.532392,-84.355959,"256 N Main St, Jonesboro, GA 30236",1,3.9,475
Dairy Queen,US,33.771188,-84.373631,"410 North Ave NE, Atlanta, GA 30308",1,3.2,1307
Hardee's,US,30.429273,-81.65306600000001,"498 Busch Dr, Jacksonville, FL 32218",1,3.8,1206
Hardee's,US,30.335676,-81.415375,"1500 Mayport Rd, Atlantic Beach, FL 32233",1,4.7,823
Hardee's,US,30.44787,-86.638646,"822 Beal Pkwy NW, Fort Walton Beach, FL 32547",1,4.1,823
Hardee's,US,30.968266999999997,-85.510864,"5425 Cotton St, Graceville, FL 32440",1,4,144
Hardee's,US,29.053904,-81.324411,"1098 W International Speedway Blvd, DeLand, FL 32720",1,3.5,400
Hardee's,US,38.9237,-75.56721999999999,"7237 Milford Harrington Hwy, Harrington, DE 19952",1,3.8,613
Hardee's,US,30.703743,-84.854535,"651 W Washington St, Chattahoochee, FL 32324",1,3.6,351
Hardee's,US,36.1825,-94.138655,"401 S Thompson St, Springdale, AR 72764",2,4.1,568
Papa John's Pizza,US,37.313592,-79.952038,"4513 Williamson Rd NW, Roanoke, VA 24012",1,3.2,414
Burger King,US,44.835640000000005,-68.742387,"631 Hogan Rd, Bangor, ME 4401",1,4.3,823
Papa John's Pizza,US,37.410270000000004,-79.913083,"1783 Roanoke Rd, Daleville, VA 24083",1,4,119
Pizza Hut,US,46.875699,-102.81083199999999,"22 S State Ave, Dickinson, ND 58601",1,3.5,196
Burger King,US,35.6876,-79.82614000000001,"758 W Dixie Dr, Asheboro, NC 27205",1,3.8,1049
,US,36.069592,-80.33416700000001,"4505 Kester Mill Rd, Winston-Salem, NC 27103",1,4,1460
Subway,US,38.615623,-90.221252,"1641 S Jefferson Ave, Saint Louis, MO 63104",1,4.6,322
,US,30.48697,-92.42648,"1051 W Maple Ave, Eunice, LA 70535",1,4.2,133
Hardee's,US,38.21353844,-90.40835567,"1305 Veterans Blvd, Festus, MO 63028",1,3.4,555
Arby's,US,38.8067,-90.297975,"13963 New Halls Ferry Rd, Florissant, MO 63033",,4.1,
,US,37.31071,-89.53989,"1701 Lacey St, Cape Girardeau, MO 63701",,4.1,
Dairy Queen,US,39.779771000000004,-84.050756,"2724 Colonel Glenn Hwy, Fairborn, OH 45324",2,4.5,3817
Dairy Queen,US,41.108993,-81.50756700000001,"260 E Cuyahoga Falls Ave, Akron, OH 44310",,4.5,
Dairy Queen,US,40.492212,-81.444822,"235 N Broadway St, New Philadelphia, OH 44663",1,3.7,583
Dairy Queen,US,40.00481,-81.575932,"2163 Southgate Pkwy, Cambridge, OH 43725",1,3.4,1370
Arby's,US,34.188759999999995,-79.82401999999999,"2399 David H Mcleod Blvd, Florence, SC 29501",1,4.2,895
Arby's,US,34.166512,-79.763886,"1420 S Irby St, Florence, SC 29505",1,4.3,792
Burger King,US,42.900371,-71.33503,"35 Manchester Rd, Derry, NH 3038",1,2.7,390
McDonald's,US,43.618244,-72.957313,"195 Woodstock Ave, Rutland, VT 5701",1,3.6,637
McDonald's,US,41.077026000000004,-111.973568,"1155 N Hill Field Rd, Layton, UT 84041",1,3,1660
McDonald's,US,44.913112,-72.796661,"41 Jayview Dr, Enosburg Falls, VT 5450",1,3.2,258
,US,34.549637,-90.65453000000001,"6096 Highway 49, West Helena, AR 72390",1,3.6,305
McDonald's,US,44.464893,-73.184211,"155 Dorset St, South Burlington, VT 5403",,3.9,
McDonald's,US,44.437629,-73.210838,"1125 Shelburne Rd, South Burlington, VT 5403",1,3.6,799
McDonald's,US,44.507366,-73.086501,"71 Upper Main St, Essex Junction, VT 5452",1,3.4,515
McDonald's,US,44.503345,-73.1809,"44 S Park Dr, Colchester, VT 5446",1,3.5,780
Hardee's,US,34.376529999999995,-84.91441999999999,"101 Princeton Blvd, Adairsville, GA 30103",1,3.8,475
McDonald's,US,40.771496,-111.91753200000001,"916 W North Temple, Salt Lake City, UT 84116",1,0,0
McDonald's,US,41.178295,-112.000468,"909 W Riverdale Rd, Ogden, UT 84405",1,4.1,729
McDonald's,US,40.250567,-111.662228,"211 W 1230 N, Provo, UT 84604",1,3.8,666
McDonald's,US,47.664944,-117.197199,"819 N Sullivan Rd, Veradale, WA 99037",1,3.6,1721
McDonald's,US,41.491076,-112.016097,"902 S Main St, Brigham City, UT 84302",1,2.3,410
McDonald's,US,46.944589,-122.612408,"505 W Yelm Ave, Yelm, WA 98597",1,3.5,1376
Dairy Queen,US,39.21248,-80.37987,"2740 Laurel Park Rd, Clarksburg, WV 26301",,4.5,
McDonald's,US,46.603108,-120.481796,"1600 E Chestnut Ave, Yakima, WA 98901",1,3.9,1182
McDonald's,US,46.600035999999996,-120.586846,"5910 Summitview Ave, Yakima, WA 98908",1,3.8,632
McDonald's,US,46.056214000000004,-118.34606799999999,"814 S 9th Ave, Walla Walla, WA 99362",,4.2,
McDonald's,US,45.910773,-122.746105,"1601 Pacific Ave, Woodland, WA 98674",1,4,1115
,US,42.73332,-84.47609,"615 E Grand River Ave, East Lansing, MI 48823",2,4.5,1233
Little Caesars,US,34.02649,-118.19894,"3476 Whittier Blvd, Los Angeles, CA 90023",1,4.5,63
Burger King,US,43.017621999999996,-83.517572,"1084 S State Rd, Davison, MI 48423",1,3.6,765
Culver's,US,36.6259,-88.3146,"818 N 12th St, Murray, KY 42071",1,3.9,600
Papa John's Pizza,US,37.750815,-87.111814,"2510 Frederica St, Owensboro, KY 42301",1,4,210
Domino's Pizza,US,40.8278,-74.1011,"6 Orient Way, Rutherford, NJ 7070",1,5,43
,US,41.205168,-96.123583,"13425 Q St, Omaha, NE 68137",1,4.4,485
Pizza Hut,US,45.308895,-85.25874499999999,"1303 Bridge St, Charlevoix, MI 49720",1,4.1,337
,US,41.153051,-95.918252,"816 Galvin Rd S, Bellevue, NE 68005",1,4.3,364
,US,41.435241,-96.497046,"640 N Park Ave, Fremont, NE 68025",1,4.3,372
,US,42.024188,-97.42652,"814 S 13th St, Norfolk, NE 68701",1,4.3,523
,US,41.205559,-96.62267299999999,"141 S Chestnut St, Wahoo, NE 68066",1,4.3,297
,US,43.4156,-84.04944,"6893 Gratiot Rd, Saginaw, MI 48609",2,4.3,114
Domino's Pizza,US,40.9994,-73.9537,"538 Livingston St, Norwood, NJ 7648",2,4.3,275
Domino's Pizza,US,40.8805,-74.7315,"141 Us Highway 46, Budd Lake, NJ 7828",1,4.2,108
Sbarro,US,42.702887,-83.306602,"4402 Baldwin Rd, Auburn Hills, MI 48326",2,3.8,193
McDonald's,US,42.269137,-88.853432,"1313 N State St, Belvidere, IL 61008",,0,
McDonald's,US,38.619582,-89.530023,"681 N 12th St, Breese, IL 62230",1,3.7,262
McDonald's,US,41.265584999999994,-88.208353,"285 N Front St, Braidwood, IL 60408",1,3.5,460
McDonald's,US,41.698519,-88.068207,"100 N Bolingbrook Dr, Bolingbrook, IL 60440",1,3.8,1037
McDonald's,US,41.160051,-87.85108100000001,"1180 N Kinzie Ave, Bradley, IL 60915",1,3.1,1448
McDonald's,US,41.159303,-87.886347,"575 Main St NW, Bourbonnais, IL 60914",1,3.4,545
Pizza Hut,US,42.449917,-85.66160500000001,"1224 M 89, Plainwell, MI 49080",1,3.5,695
McDonald's,US,41.850214,-87.783733,"6401 Cermak Rd, Berwyn, IL 60402",,4,
McDonald's,US,41.849965999999995,-87.80297900000001,"7181 Cermak Rd, Berwyn, IL 60402",1,3.7,867
McDonald's,US,42.240066,-88.841255,"240 W Chrysler Dr, Belvidere, IL 61008",1,3.6,908
McDonald's,US,38.545182000000004,-90.052155,"7301 Westfield Plaza Dr, Belleville, IL 62223",1,3.1,857
McDonald's,US,41.778876000000004,-88.315713,"1023 N Lake St, Aurora, IL 60506",,0,
McDonald's,US,41.759701,-88.208402,"188 Fox Valley Ctr, Aurora, IL 60504",2,4.6,1872
Arby's,US,45.044076000000004,-83.456928,"2250 US Highway 23 S, Alpena, MI 49707",1,4.2,531
Dairy Queen,US,45.050340000000006,-83.445,"1001 S State Ave, Alpena, MI 49707",,4.8,
Pizza Hut,US,30.227514000000003,-93.34315500000001,"3000 Maplewood Dr, Sulphur, LA 70663",2,4.3,324
McDonald's,US,41.199464,-90.733615,"1402 SE 3rd St, Aledo, IL 61231",1,3.5,387
McDonald's,US,42.163979,-88.285165,"500 E Algonquin Rd, Algonquin, IL 60102",,4.4,
McDonald's,US,42.173932,-88.335286,"125 S Randall Rd, Algonquin, IL 60102",1,3.3,411
,US,30.338972,-95.452562,"202 S Loop 336 W, Conroe, TX 77304",2,4.3,2028
McDonald's,US,43.587291,-116.575061,"148 Caldwell Blvd, Nampa, ID 83651",1,3.6,2085
Arby's,US,30.390990000000002,-91.06156,"6464 Siegen Ln, Baton Rouge, LA 70809",1,4,1102
McDonald's,US,43.693428000000004,-116.35355200000001,"178 S Eagle Rd, Eagle, ID 83616",1,3.5,1095
McDonald's,US,43.863452,-116.50008500000001,"1335 S Washington Ave, Emmett, ID 83617",1,3.5,850
Subway,US,40.174915000000006,-79.806673,"1750 Rostraver Rd, Belle Vernon, PA 15012",1,4.3,188
Subway,US,40.588694,-80.260898,"2693 Brodhead Rd, Aliquippa, PA 15001",1,3.8,152
McDonald's,US,35.792697,-78.37903,"2900 Wendell Blvd, Wendell, NC 27591",1,3.7,977
McDonald's,US,34.62292,-79.047438,"2900 W 5th St, Lumberton, NC 28358",,4.8,
Round Table Pizza,US,34.686106,-118.14679699999999,"44204 10th St W, Lancaster, CA 93534",2,4,883
Pizza Hut,US,34.698297,-118.147471,"44836 10th St W, Lancaster, CA 93534",2,4.2,309
Chicken Express,US,33.66189,-95.506573,"3820 Lamar Ave, Paris, TX 75462",1,3.5,1481
Chicken Express,US,32.840958,-97.21383,"5100 Davis Blvd, North Richland Hills, TX 76180",1,4.1,1566
Chicken Express,US,33.154826,-96.946861,"904 W Eldorado Pkwy, Little Elm, TX 75068",1,3.5,616
Chicken Express,US,33.59233,-101.914511,"4704 4th St, Lubbock, TX 79416",2,3.7,267
Chicken Express,US,32.934360999999996,-97.23605699999999,"791 Keller Pkwy, Keller, TX 76248",,3.1,
Chicken Express,US,31.721935,-98.118673,"305 N Rice St, Hamilton, TX 76531",,4.5,
Chicken Express,US,33.636432,-97.13330500000001,"1108 N Grand Ave, Gainesville, TX 76240",1,3.9,117
Chicken Express,US,32.401465,-98.791001,"1451 E Main St, Eastland, TX 76448",1,4.1,419
Culver's,US,44.830225,-93.601813,"180 Pioneer Trl, Chaska, MN 55318",1,4.4,860
Jimmy John's,US,44.745653999999995,-93.300905,"1615 County Road 42 W, Burnsville, MN 55306",2,4.4,221
McDonald's,US,32.385436999999996,-90.147307,"595 E Beasley Rd, Jackson, MS 39206",1,3.6,440
McDonald's,US,30.446348999999998,-88.934148,"970 Cedar Lake Rd, Biloxi, MS 39532",2,4.2,1571
McDonald's,US,35.108263,-80.881511,"9505 South Blvd, Charlotte, NC 28273",,4.4,
McDonald's,US,33.493277,-88.363825,"937 Alabama St, Columbus, MS 39702",,4,
McDonald's,US,35.989292999999996,-80.002751,"930 Mall Loop Rd, High Point, NC 27262",1,3.3,1148
Arby's,US,43.684267,-93.359575,"2707 Bridge Ave, Albert Lea, MN 56007",1,3.7,489
McDonald's,US,35.900308,-78.681365,"8305 Creedmoor Rd, Raleigh, NC 27613",2,4.3,1067
McDonald's,US,48.387043,-115.55206299999999,"905 Louisiana Ave, Libby, MT 59923",1,3.7,476
,US,48.739136,-122.469467,"310 N Samish Way, Bellingham, WA 98225",1,4.4,3529
McDonald's,US,30.438931,-88.526545,"6724 Highway 63, Moss Point, MS 39563",1,3.4,1502
McDonald's,US,35.837286999999996,-80.253557,"812 Winston Rd, Lexington, NC 27295",1,3.9,649
McDonald's,US,36.110972,-80.089276,"840 S Main St, Kernersville, NC 27284",1,3.2,643
McDonald's,US,45.698929,-111.04674399999999,"822 Wheat Dr, Bozeman, MT 59715",1,4.2,706
McDonald's,US,35.695895,-81.232175,"717 Conover Blvd W, Conover, NC 28613",2,4.4,1903
McDonald's,US,46.869446,-113.98503600000001,"720 E Broadway St, Missoula, MT 59802",1,3.1,577
McDonald's,US,33.759524,-90.715742,"710 N Davis Ave, Cleveland, MS 38732",2,4.2,386
McDonald's,US,30.393040000000003,-88.884899,"692 Beach Blvd, Biloxi, MS 39530",1,3.3,2315
McDonald's,US,34.962709000000004,-89.990486,"65 Goodman Rd W, Southaven, MS 38671",1,3.4,530
McDonald's,US,36.088625,-79.887872,"706 College Rd, Greensboro, NC 27410",1,3.7,128
McDonald's,US,36.126193,-77.42314300000001,"701 Main St, Scotland Neck, NC 27874",2,3.8,18
McDonald's,US,35.03713,-79.00683199999999,"6779 Raeford Rd, Fayetteville, NC 28304",1,3.4,1550
McDonald's,US,48.396122999999996,-114.334756,"6495 Us Highway 93 S, Whitefish, MT 59937",1,3.5,564
McDonald's,US,35.333436999999996,-80.798965,"6225 W Sugar Creek Rd, Charlotte, NC 28269",1,3,1217
McDonald's,US,35.203199,-80.73825,"6301 Albemarle Rd, Charlotte, NC 28212",1,4,606
McDonald's,US,35.661995000000005,-80.50035799999999,"601 Jake Alexander Blvd W, Salisbury, NC 28147",,0,
McDonald's,US,36.126014,-79.906582,"5701 Inman Rd, Greensboro, NC 27410",1,4.3,384
McDonald's,US,35.236497,-80.735822,"5800 E Wt Harris Blvd, Charlotte, NC 28215",1,4.2,691
,US,37.419405,-121.89749099999999,"610 Great Mall Dr, Milpitas, CA 95035",2,4,4914
,US,34.952117,-120.43348200000001,"197 Town Ctr E, Santa Maria, CA 93454",1,3.7,55
,US,38.599885,-121.427442,"1689 Arden Way, Sacramento, CA 95815",1,4.8,50
Dunkin' Donuts,US,40.619683,-74.008071,"7602 13th Ave, Brooklyn, NY 11228",1,3.9,79
Dunkin' Donuts,US,40.692187,-73.991162,"56 Court St, Brooklyn, NY 11201",2,4.2,870
Arby's,US,35.826728,-80.249726,"401 N Main St, Lexington, NC 27292",1,3.9,772
Burger King,US,35.786440999999996,-80.261414,"1432 Cotton Grove Rd, Lexington, NC 27292",1,4.2,1623
Burger King,US,38.592706,-89.97913,"401 Lincoln Hwy, Fairview Heights, IL 62208",1,3.6,704
Hardee's,US,37.838741,-90.487971,"100 Plaza Sq, Park Hills, MO 63601",1,3.7,621
Dunkin' Donuts,US,40.680355,-73.948909,"1309 Fulton St, Brooklyn, NY 11216",2,4.3,442
Dunkin' Donuts,US,40.844458,-73.89729,"4115 3rd Ave, Bronx, NY 10457",,5,
Dunkin' Donuts,US,40.826478,-73.82199399999999,"3732 E Tremont Ave, Bronx, NY 10465",2,4.4,978
,US,35.808933,-80.27141,"1500 S Main St, Lexington, NC 27292",2,4.3,1576
Burger King,US,42.242137,-88.976027,"7197 Charles St, Rockford, IL 61112",1,3.9,533
Burger King,US,32.517245,-92.157261,"100 Thomas Rd, West Monroe, LA 71291",1,3.5,495
Taco Bell,US,42.633792,-83.74529100000001,"10440 Highland Rd, Hartland, MI 48353",1,3.6,230
Burger King,US,42.266918,-89.078393,"1138 E State St, Rockford, IL 61104",1,3.1,857
Burger King,US,39.935583,-91.358298,"421 N 36th St, Quincy, IL 62301",1,3.7,695
Burger King,US,41.483933,-87.71654699999999,"4121 Sauk Trl, Richton Park, IL 60471",,4,
Burger King,US,40.873382,-88.66200699999999,"600 S Newport Rd, Pontiac, IL 61764",1,3.4,531
Burger King,US,37.051114,-76.460806,"10721 Jefferson Ave, Newport News, VA 23601",1,4.6,1494
Burger King,US,40.551094,-89.60840300000001,"2901 Court St, Pekin, IL 61554",1,3.6,467
Taco Bell,US,39.881314,-83.06760600000001,"2408 Stringtown Rd, Grove City, OH 43123",1,2.9,545
Burger King,US,41.293679,-89.071461,"1 Marquette Ave, Oglesby, IL 61348",1,4.9,209
Taco Bell,US,38.927033,-121.08756799999999,"1717 Grass Valley Hwy, Auburn, CA 95603",1,3.9,764
Taco Bell,US,41.755062,-124.19383400000001,"370 M St, Crescent City, CA 95531",1,3.3,843
Taco Bell,US,37.492303,-120.87260900000001,"2050 W Main St, Turlock, CA 95380",1,3.9,763
Hardee's,US,46.545916,-87.420006,"1120 W Washington St, Marquette, MI 49855",1,3.9,469
Taco Bell,US,37.517764,-120.84839,"2700 Geer Rd, Turlock, CA 95382",1,3.9,871
Hardee's,US,38.342966,-75.604458,"1301 S Salisbury Blvd, Salisbury, MD 21801",2,4.5,481
Taco Bell,US,39.985085,-83.150784,"1680 Hilliard Rome Rd, Hilliard, OH 43026",1,3.4,695
Hardee's,US,39.224396999999996,-76.659193,"718 Nursery Rd, Linthicum Heights, MD 21090",1,3.7,843
Taco Bell,US,40.031912,-83.141324,"4652 Cemetery Rd, Hilliard, OH 43026",1,3.6,513
Burger King,US,38.313427000000004,-88.945891,"4601 Broadway St, Mount Vernon, IL 62864",2,4.4,914
Hardee's,US,38.557459,-76.060385,"800 Woods Rd, Cambridge, MD 21613",1,3.6,599
Taco Bell,US,39.423262,-84.593293,"1410 Main St, Hamilton, OH 45013",1,3.4,898
Burger King,US,38.412503,-87.766489,"730 N Walnut St, Mount Carmel, IL 62863",1,3.7,283
Taco Bell,US,39.969056,-82.875638,"294 S Hamilton Rd, Columbus, OH 43230",1,3.8,1144
Burger King,US,41.726724,-88.319467,"1385 Douglas Rd, Montgomery, IL 60538",1,3,269
Burger King,US,40.922304,-90.648003,"1130 N Main St, Monmouth, IL 61462",1,3.8,233
Subway,US,40.270346999999994,-75.223726,"449 W Butler Ave, Chalfont, PA 18914",,4.9,
Burger King,US,41.472174,-90.477646,"4040 38th Ave, Moline, IL 61265",1,4.4,1034
Burger King,US,41.908625,-87.883706,"1935 N Mannheim Rd, Melrose Park, IL 60160",,3.6,
Taco Bell,US,39.789566,-84.238902,"3013 Salem Ave, Dayton, OH 45406",,4.5,
Taco Bell,US,39.73069,-84.141681,"2509 S Smithville Rd, Dayton, OH 45420",1,3.6,1542
Taco Bell,US,39.768446999999995,-84.123579,"47 Woodman Dr, Dayton, OH 45431",1,3.7,1096
,US,28.442538,-81.307234,"1 Airport Blvd, Orlando, FL 32827",,2.8,
Taco Bell,US,39.706096,-84.202668,"3060 Kettering Blvd, Dayton, OH 45439",2,4.7,87
Burger King,US,40.67705,-89.56172,"1094 N Main St, East Peoria, IL 61611",1,2.9,643
Chick-Fil-A,US,40.66816,-89.58274,"250 W Washington St, East Peoria, IL 61611",1,4.6,1869
Taco Bell,US,40.135435,-83.01686099999999,"8440 N High St, Columbus, OH 43235",1,3.4,725
Taco Bell,US,40.058393,-82.917559,"3834 Morse Rd, Columbus, OH 43219",2,3.5,2357
Taco Bell,US,40.066295000000004,-83.092686,"4770 Sawmill Rd, Columbus, OH 43235",1,3,553
Burger King,US,42.313288,-89.054244,"630 Machesney Rd, Machesney Park, IL 61115",,4.9,
Burger King,US,40.458596,-90.648064,"1701 E Jackson St, Macomb, IL 61455",2,4.1,595
Subway,US,40.727488,-76.19009799999999,"500 Terry Rich Blvd, Saint Clair, PA 17970",1,3.7,34
Subway,US,40.637935,-76.171635,"366 Center Ave, Schuylkill Haven, PA 17972",1,4.3,168
Subway,US,41.003082,-76.456548,"6 W Main St, Bloomsburg, PA 17815",,4.7,
Subway,US,40.033798,-76.504435,"149 N 3rd St, Columbia, PA 17512",1,4.3,244
Subway,US,40.228059,-76.089173,"2350 N Reading Rd, Denver, PA 17517",2,4,599
Burger King,US,41.115978000000005,-87.864762,"439 S Schuyler Ave, Kankakee, IL 60901",1,3.1,524
Burger King,US,41.581105,-88.16362600000001,"3130 Plainfield Rd, Joliet, IL 60435",1,4,285
Pizza Hut,US,42.02241,-93.60338,"620 Lincoln Way Ste 5, Ames, IA 50010",1,4.9,428
Burger King,US,42.377669,-87.934268,"5300 Grand Ave, Gurnee, IL 60031",1,3.7,499
Burger King,US,42.088318,-87.79858399999999,"1834 Waukegan Rd, Glenview, IL 60025",1,3.7,299
Burger King,US,38.72506,-90.12272,"3406 Nameoki Rd, Granite City, IL 62040",1,3.9,613
Burger King,US,41.851507,-87.751952,"5100 W Cermak Rd, Cicero, IL 60804",2,3.3,87
Dunkin' Donuts,US,28.568433000000002,-81.28303100000001,"7707 E Colonial Dr, Orlando, FL 32807",1,4.1,1038
Dunkin' Donuts,US,28.469912,-81.368152,"6215 S Orange Ave, Orlando, FL 32809",1,4.4,890
Dunkin' Donuts,US,28.387037,-81.506447,"12236 S Apopka Vineland Rd, Orlando, FL 32836",,4.6,
,US,42.018029999999996,-87.80717,"7536 N Milwaukee Ave, Chicago, IL 60631",1,4.7,354
Dunkin' Donuts,US,25.733104,-80.316348,"7501 Bird Rd, Miami, FL 33155",2,4.3,2374
Dunkin' Donuts,US,25.746581,-80.36985200000001,"10754 SW 24th St, Miami, FL 33165",1,4.7,734
Arby's,US,41.948496999999996,-88.729428,"2000 Sycamore Rd, DeKalb, IL 60115",1,3.6,415
,US,39.95343,-75.188171,"3200 Chestnut St, Philadelphia, PA 19104",2,4.3,1529
Subway,US,42.25521,-71.124229,"1281 Hyde Park Ave, Hyde Park, MA 2136",1,4.4,41
Subway,US,42.370628,-71.11362700000001,"1105 Massachusetts Ave, Cambridge, MA 2138",1,4.1,584
Subway,US,42.431816999999995,-71.455051,"107 Main St, Maynard, MA 1754",,4.8,
,US,29.800178000000002,-90.817667,"204 N Canal Blvd, Thibodaux, LA 70301",2,4.2,281
McDonald's,US,33.989111,-118.31236000000001,"1900 W Slauson Ave, Los Angeles, CA 90047",1,4,1226
McDonald's,US,34.415365,-118.46448899999999,"18850 Soledad Canyon Rd, Canyon Country, CA 91351",1,3.9,1117
Subway,US,34.110167,-84.51781,"9550 Main St, Woodstock, GA 30188",1,4.9,93
Subway,US,41.101724,-111.945057,"1142 E Highway 193, Layton, UT 84040",1,3.6,241
McDonald's,US,33.887088,-118.37903200000001,"1852 Manhattan Beach Blvd, Manhattan Beach, CA 90266",1,3.8,845
McDonald's,US,37.288978,-120.454784,"1821 Motel Dr, Merced, CA 95341",1,3.8,96
Culver's,US,41.723814000000004,-87.798059,"9229 S Harlem Ave, Bridgeview, IL 60455",1,4.4,1458
McDonald's,US,34.041633000000004,-118.30853799999998,"1800 S Western Ave, Los Angeles, CA 90006",1,4.3,294
McDonald's,US,37.670921,-121.03126599999999,"1800 Prescott Rd, Modesto, CA 95350",2,4.3,1099
McDonald's,US,33.872499,-118.249899,"17455 Central Ave, Carson, CA 90746",1,3.9,881
McDonald's,US,36.545446999999996,-119.376746,"1725 E El Monte Way, Dinuba, CA 93618",1,3.8,896
McDonald's,US,37.460186,-122.137635,"1721 E Bayshore Rd, Palo Alto, CA 94303",1,3.3,720
McDonald's,US,38.596734999999995,-121.415696,"1721 Howe Ave, Sacramento, CA 95825",1,3.7,1233
McDonald's,US,38.580839000000005,-121.53100500000001,"1700 W Capitol Ave, West Sacramento, CA 95691",1,4.1,600
McDonald's,US,38.083895,-122.232565,"170 Lincoln Rd E, Vallejo, CA 94591",1,3.5,788
McDonald's,US,34.170497,-118.28943400000001,"1634 W Glenoaks Blvd, Glendale, CA 91201",1,3.8,1046
McDonald's,US,33.964895,-117.697501,"15950 Los Serranos Country Club Dr, Chino Hills, CA 91709",1,4.7,231
McDonald's,US,38.00878,-122.27128799999998,"1570 Sycamore Ave, Hercules, CA 94547",1,3.6,548
McDonald's,US,34.077272,-118.13938,"1520 W Valley Blvd, Alhambra, CA 91803",2,4.5,1092
McDonald's,US,33.726842,-117.88911599999999,"1526 W Edinger Ave, Santa Ana, CA 92704",2,4.1,169
McDonald's,US,36.607914,-121.85598200000001,"1516 Canyon Del Rey Blvd, Seaside, CA 93955",1,3.6,631
KFC,US,37.69382,-122.46455800000001,"7199 Mission St, Daly City, CA 94014",1,3.9,264
McDonald's,US,36.916716,-121.775824,"1459 Main St, Watsonville, CA 95076",1,3.6,966
Chick-fil-A,US,33.590333,-86.697132,"9345 Parkway E, Birmingham, AL 35215",1,4,1145
Chick-fil-A,US,39.446673,-77.986674,"1005 Foxcroft Ave, Martinsburg, WV 25401",1,4.4,938
Chick-fil-A,US,37.802793,-81.181533,"1300 N Eisenhower Dr, Beckley, WV 25801",1,4.3,848
Chick-fil-A,US,37.115608,-76.468184,"5003a Victory Blvd, Yorktown, VA 23693",1,3.9,402
Chick-fil-A,US,37.339529999999996,-76.738285,"6732 Mooretown Rd, Williamsburg, VA 23188",1,4.5,2439
Chick-fil-A,US,36.798702,-76.178946,"5409 Indian River Rd, Virginia Beach, VA 23464",1,4.5,2859
Chick-fil-A,US,37.308619,-79.96242600000001,"4802 Valley View Blvd NW, Roanoke, VA 24012",2,4.3,1301
Chick-fil-A,US,37.228457,-79.977693,"4374 Electric Rd, Roanoke, VA 24018",2,4.2,1482
Chick-fil-A,US,37.636558,-77.549903,"9100 W Broad St, Henrico, VA 23294",1,4.4,2439
In-N-Out Burger,US,34.117576,-117.907269,"324 S Azusa Ave, Azusa, CA 91702",1,4.6,2771
In-N-Out Burger,US,34.068261,-117.973647,"13850 Francisquito Ave, Baldwin Park, CA 91706",1,4.7,6650
In-N-Out Burger,US,34.868082,-117.11592900000001,"2821 Lenwood Rd, Barstow, CA 92311",1,4.5,304
In-N-Out Burger,US,38.90162,-121.074773,"130 Grass Valley Hwy, Auburn, CA 95603",1,4.6,4612
Chick-fil-A,US,36.864964,-76.210719,"1205 N Military Hwy, Norfolk, VA 23502",1,4.3,4011
Chick-fil-A,US,37.36773,-79.175586,"2901 Candlers Mountain Rd, Lynchburg, VA 24502",2,4.4,1260
Chick-fil-A,US,37.048521,-76.39071700000001,"2140 Coliseum Dr, Hampton, VA 23666",1,4.5,3113
Chick-fil-A,US,38.305008,-77.509345,"1698 Carl D Silver Pkwy, Fredericksburg, VA 22401",1,4.5,1873
Chick-fil-A,US,36.595957,-79.422353,"325 Piedmont Dr, Danville, VA 24540",2,4,749
Chick-fil-A,US,38.887485,-77.44462299999999,"4412 Chantilly Pl, Chantilly, VA 20151",1,4.1,607
Chick-fil-A,US,38.078584,-78.473337,"1576 Rio Rd E, Charlottesville, VA 22901",,4.4,
Chick-fil-A,US,38.088271999999996,-78.471184,"350 Woodbrook Dr, Charlottesville, VA 22901",1,4.5,2001
Chick-fil-A,US,40.636461,-111.886187,"6191 S State St, Salt Lake City, UT 84107",,4.4,
Pizza Hut,US,34.919944,-95.320358,"805 Highway 2 N, Wilburton, OK 74578",1,4.1,296
Pizza Hut,US,35.463509,-95.525382,"701 S Broadway St, Checotah, OK 74426",1,3.9,490
Pizza Hut,US,36.278105,-95.828151,"12922 E 86th St N, Owasso, OK 74055",2,4.2,721
Pizza Hut,US,34.226489,-97.47493399999999,"715 Highway 76 S, Healdton, OK 73438",1,4.2,233
Subway,US,41.100839,-81.437661,"35 Erie Rd, Tallmadge, OH 44278",1,4.1,174
Subway,US,39.896677000000004,-83.081176,"3200 Broadway, Grove City, OH 43123",1,3.5,1641
Subway,US,41.103117,-80.706303,"3212 Mahoning Ave, Youngstown, OH 44509",1,4.6,30
Taco Bell,US,42.461636999999996,-83.092384,"1221 E 9 Mile Rd, Hazel Park, MI 48030",1,3.3,1603
Taco Bell,US,42.414696,-82.991078,"12200 Gratiot Ave, Detroit, MI 48205",,4,
Subway,US,41.151148,-81.508981,"2924 State Rd, Cuyahoga Falls, OH 44223",1,3.4,116
Subway,US,40.829692,-81.424453,"2838 Whipple Ave NW, Canton, OH 44708",1,3.8,88
Arby's,US,43.590028000000004,-84.768477,"1224 S Mission, Mount Pleasant, MI 48858",1,4.1,838
Whataburger,US,33.405438000000004,-111.97828600000001,"4610 S 48th St, Phoenix, AZ 85040",1,4,3198
Taco Bell,US,38.993906,-76.932576,"8428 Baltimore Ave, College Park, MD 20740",1,4,1985
Whataburger,US,33.495053999999996,-112.07986299999999,"450 W Indian School Rd, Phoenix, AZ 85013",1,4.1,2002
Whataburger,US,33.430945,-112.099907,"1840 S 19th Ave, Phoenix, AZ 85009",1,4,2915
Whataburger,US,33.304688,-111.968341,"7375 W Chandler Blvd, Chandler, AZ 85226",1,4.1,2876
Whataburger,US,33.44927,-112.342173,"1450 N Dysart Rd, Avondale, AZ 85323",1,4.1,1966
Subway,US,29.905504999999998,-96.876605,"109 S Jefferson St, La Grange, TX 78945",2,4.5,267
Burger King,US,39.65965,-85.12869,"2132 N Park Rd, Connersville, IN 47331",1,3.2,716
Arby's,US,42.945527,-83.69153,"5515 Fenton Rd, Flint, MI 48507",1,4.1,772
Subway,US,27.761418,-98.22821,"1018 E Gravis St, San Diego, TX 78384",,4.3,
,US,42.301621999999995,-89.64312199999999,"1416 W Galena Ave, Freeport, IL 61032",1,3.7,159
Arby's,US,44.275721000000004,-85.406141,"1714 N Mitchell St, Cadillac, MI 49601",1,4,967
Arby's,US,43.009426,-85.689161,"2509 Alpine Ave NW, Grand Rapids, MI 49544",1,3.9,738
Arby's,US,42.884654,-85.683497,"765 44th St SW, Wyoming, MI 49509",1,4,770
Arby's,US,42.912151,-85.59357299999999,"3000 28th St SE, Grand Rapids, MI 49512",1,3.9,690
Arby's,US,42.984058000000005,-85.638407,"1230 Leonard St NE, Grand Rapids, MI 49505",1,3.9,821
Arby's,US,42.905049,-85.776885,"4584 Chicago Dr SW, Grandville, MI 49418",1,4.1,567
Arby's,US,42.755541,-86.11581,"1195 Washington Ave, Holland, MI 49423",1,4,475
Burger King,US,28.124645,-81.64031,"36100 Hwy 27, Haines City, FL 33844",1,3.5,1041
Arby's,US,41.938054,-84.644247,"411 W Carleton Rd, Hillsdale, MI 49242",1,4,527
Arby's,US,42.931488,-85.362962,"2143 W Main St, Lowell, MI 49331",1,3.8,536
Arby's,US,42.261453,-84.423763,"952 N West Ave, Jackson, MI 49202",1,4,1117
Arby's,US,42.450431,-85.663248,"1215 M 89, Plainwell, MI 49080",1,4.1,632
Arby's,US,42.272194,-84.983336,"1310 W Michigan Ave, Marshall, MI 49068",1,4,580
Arby's,US,42.194115999999994,-85.597792,"8508 Shaver Rd, Portage, MI 49024",1,4.1,696
Arby's,US,42.261765999999994,-85.53267,"3656 E Cork St, Kalamazoo, MI 49001",1,3.9,891
Arby's,US,42.669926000000004,-84.543872,"6031 S Cedar St, Lansing, MI 48911",1,3.7,976
Arby's,US,42.988532,-84.54214300000001,"1881 S Scott Rd, Saint Johns, MI 48879",1,4.2,364
Arby's,US,43.352851,-83.870496,"6360 Dixie Hwy, Bridgeport, MI 48722",1,4,384
Arby's,US,43.661823,-84.24771199999999,"7019 Eastman Ave, Midland, MI 48642",1,4.2,679
Arby's,US,44.251953,-84.22620500000001,"2900 Cook Rd, West Branch, MI 48661",1,4.1,678
Burger King,US,26.6752,-80.67163000000001,"860 S Main St, Belle Glade, FL 33430",1,3.8,417
Arby's,US,43.840219,-84.767504,"10207 S Clare Ave, Clare, MI 48617",1,4,743
Arby's,US,44.299003000000006,-84.712048,"3574 W Houghton Lake Dr, Houghton Lake, MI 48629",1,3.7,776
Arby's,US,43.041955,-83.32014000000001,"765 S Main St, Lapeer, MI 48446",1,4.1,1146
Arby's,US,43.019622,-83.518344,"1010 S State Rd, Davison, MI 48423",,0,
Arby's,US,42.894241,-83.63318199999999,"3465 Pollock Rd, Grand Blanc, MI 48439",1,4.1,674
,US,43.016751,-71.450512,"545 Hooksett Rd, Manchester, NH 3104",1,4.4,68
,US,37.649892,-97.315398,"1818 E Pawnee St, Wichita, KS 67211",1,4.1,827
Burger King,US,39.140033,-88.566849,"1308 N Keller Dr, Effingham, IL 62401",1,3.8,430
,US,43.62079,-116.22165,"2520 W Fairview Ave, Boise, ID 83702",1,4.5,1442
Arby's,US,39.140232,-88.56615,"1401 Thelma Keller Ave, Effingham, IL 62401",1,4,722
,US,41.37338,-81.90162,"8155 Columbia Rd, Olmsted Falls, OH 44138",1,3.8,114
Jack in the Box,US,37.996359000000005,-122.284873,"2689 Pinole Valley Rd, Pinole, CA 94564",1,3.7,667
Arby's,US,40.769806,-81.385882,"2543 Cleveland Ave Sw, Canton, OH 44707",1,4.1,637
Arby's,US,40.795141,-81.431983,"4620 Tuscarawas St W, Canton, OH 44708",1,4.1,670
,US,36.932528000000005,-76.203127,"3201 E Ocean View Ave, Norfolk, VA 23518",2,4.2,2679
Jack in the Box,US,37.999316,-121.80546000000001,"2505 A St, Antioch, CA 94509",1,3.8,973
Jack in the Box,US,34.029369,-117.91533700000001,"2548 S Azusa Ave, West Covina, CA 91792",2,4.1,302
Pizza Hut,US,34.01031,-84.75335,"8876 Dallas Acworth Hwy Ste 106, Dallas, GA 30132",2,4.2,257
Taco Bell,US,36.838733000000005,-119.847902,"7085 N Marks Ave, Fresno, CA 93711",1,3.7,345
Jack in the Box,US,33.859865,-117.920754,"235 E Orangethorpe Ave, Fullerton, CA 92832",1,4.3,287
Jack in the Box,US,38.596416,-121.41111000000001,"2293 Arden Way, Sacramento, CA 95825",1,3.8,220
Arby's,US,34.872640000000004,-84.32539,"15 Progress Cir, Blue Ridge, GA 30513",1,3.8,867
Jack in the Box,US,33.888055,-117.518723,"2296 Griffin Way, Corona, CA 92879",1,3.9,523
Taco Bell,US,36.851564,-119.77503300000001,"7785 N 1st St, Fresno, CA 93720",1,4,680
Jack in the Box,US,34.186457,-118.622409,"22730 Victory Blvd, Woodland Hills, CA 91367",1,4.3,739
Jack in the Box,US,34.033169,-117.651474,"2242 S Euclid Ave, Ontario, CA 91762",1,3.9,714
Taco Bell,US,37.372189,-122.04766299999999,"991 W El Camino Real, Sunnyvale, CA 94087",1,4.2,1148
Jack in the Box,US,33.82493,-118.241918,"22220 Wilmington Ave, Carson, CA 90745",1,4,629
Taco Bell,US,38.260137,-122.053517,"1350 Travis Blvd, Fairfield, CA 94533",,4,
Taco Bell,US,37.981376000000004,-122.06754099999999,"500 Contra Costa Blvd, Pleasant Hill, CA 94523",2,4.1,240
Taco Bell,US,37.953026,-122.059777,"1700 Contra Costa Blvd, Pleasant Hill, CA 94523",2,4.5,881
Jack in the Box,US,34.182376,-118.16906599999999,"2125 Windsor Ave, Altadena, CA 91001",1,4.3,366
Burger King,US,34.04479,-84.69587,"3630 Cobb Pkwy Nw, Acworth, GA 30101",1,3.5,590
Arby's,US,34.0344,-84.68075,"3319 Cobb Pkwy Nw, Acworth, GA 30101",1,4.1,654
Dunkin' Donuts,US,40.872503,-73.886546,"215 E 201st St, Bronx, NY 10458",2,4.2,37
Dunkin' Donuts,US,40.848620000000004,-73.883004,"2241 Southern Blvd, Bronx, NY 10460",1,4,519
McDonald's,US,34.02467,-84.52821800000001,"3010 Canton Rd, Marietta, GA 30066",1,3.2,685
Jack in the Box,US,35.266543,-119.025897,"2111 Taft Hwy, Bakersfield, CA 93313",1,3.9,975
Dunkin' Donuts,US,40.833843,-73.851523,"1285 Castle Hill Ave, Bronx, NY 10462",1,4,220
Dunkin' Donuts,US,40.775826,-73.910275,"3114 Ditmars Blvd, Astoria, NY 11105",2,4.3,342
Taco Bell,US,36.51788,-119.56352700000001,"500 Sierra St, Kingsburg, CA 93631",1,4,539
,US,37.79675,-94.70744,"946 Highway 69, Fort Scott, KS 66701",2,0,0
Taco Bell,US,35.134484,-120.605221,"867 Oak Park Blvd, Pismo Beach, CA 93449",,0,
Taco Bell,US,35.121085,-120.61281899999999,"1500 W Grand Ave, Grover Beach, CA 93433",1,3.8,453
Taco Bell,US,35.037452,-120.483624,"535 W Tefft St, Nipomo, CA 93444",,3.2,
Taco Bell,US,35.389522,-119.003386,"3315 Union Ave, Bakersfield, CA 93305",1,3.8,1095
Arby's,US,37.752962,-100.025416,"805 W Wyatt Earp Blvd, Dodge City, KS 67801",1,4.1,390
Taco Bell,US,35.380387,-119.020827,"2300 H St, Bakersfield, CA 93301",1,3.9,889
Taco Bell,US,36.227047,-119.33084299999999,"1520 Hillman St, Tulare, CA 93274",1,3.9,714
Taco Bell,US,36.208664,-119.342028,"510 E Tulare Ave, Tulare, CA 93274",1,4.3,116
Taco Bell,US,29.652081,-82.333303,"826 W University Ave, Gainesville, FL 32601",2,4.8,249
Krystal,US,36.015703,-84.250773,"1217 Oak Ridge Turnpike, Oak Ridge, TN 37830",1,3.8,792
Krystal,US,36.157939,-86.799227,"1717 Charlotte Pike, Nashville, TN 37203",1,4.5,764
Krystal,US,36.120277,-86.775571,"2613 Franklin Pike, Nashville, TN 37204",1,4.3,1178
Krystal,US,35.973917,-83.97609399999999,"3910 Western Avenue, Knoxville, TN 37921",1,3.7,926
Krystal,US,34.989327,-85.211741,"6300 Ringgold Rd, Chattanooga, TN 37412",1,3.4,1229
Krystal,US,35.010584,-85.221313,"5401 Brainerd Rd, Chattanooga, TN 37412",2,4.4,208
KFC,US,37.0326,-95.6188,"215 W 11th St, Coffeyville, KS 67337",1,3.3,585
Krystal,US,33.491053,-81.952448,"607 E Martintown Rd, North Augusta, SC 29841",1,3.6,744
Krystal,US,32.399857,-90.109009,"2010 E County Line Rd, Ridgeland, MS 39157",1,3.4,428
Krystal,US,34.023536,-84.33025400000001,"1055 Holcomb Bridge Rd, Roswell, GA 30076",,1.7,
Krystal,US,34.244236,-85.161695,"1704 Turner McCall Blvd, Rome, GA 30161",1,3.3,956
Krystal,US,34.265001,-85.198828,"519 Shorter Avenue, Rome, GA 30161",1,3.5,1173
Krystal,US,32.468806,-83.74181,"1415 Sam Nunn Blvd, Perry, GA 31069",1,3.9,792
Krystal,US,32.110139000000004,-81.233775,"1015 US Highway 80 E, Pooler, GA 31322",1,3.3,1127
Krystal,US,34.022273999999996,-84.529025,"2929 Canton Rd, Marietta, GA 30066",1,3.2,685
Arby's,US,47.700486,-116.795134,"604 W Appleway Ave, Coeur d'Alene, ID 83814",1,3.9,1220
Subway,US,39.882529,-76.864965,"31 W Hanover St, Spring Grove, PA 17362",1,4.4,178
Subway,US,39.753163,-77.573373,"608 E Main St, Waynesboro, PA 17268",1,3.6,260
Subway,US,41.026843,-77.93580899999999,"491 E Sycamore Rd, Snow Shoe, PA 16874",,4.3,
Subway,US,41.799828000000005,-77.07628100000001,"1169 S Main St, Mansfield, PA 16933",1,4.3,84
Subway,US,40.222471999999996,-76.930148,"3455 Capital City Mall Dr, Camp Hill, PA 17011",2,4.1,2474
Subway,US,40.331501,-78.38617099999999,"322 Spring Plz, Roaring Spring, PA 16673",1,4.8,32
Subway,US,42.086667,-80.142521,"3104 W 26th St, Erie, PA 16506",1,3.8,265
Subway,US,42.068814,-80.038942,"8035 Perry Hwy, Erie, PA 16509",,0,
Subway,US,42.114222,-80.034149,"1501 E 38th St, Erie, PA 16510",1,4.3,148
Subway,US,41.627796999999994,-79.673326,"116 N Franklin St, Titusville, PA 16354",1,4,125
McDonald's,US,42.424354,-122.85108000000001,"7421 Crater Lake Hwy, White City, OR 97503",1,3.5,1072
McDonald's,US,45.346352,-122.651045,"2100 8th Ct, West Linn, OR 97068",1,3.5,819
McDonald's,US,45.391447,-122.646082,"18550 Willamette Dr, West Linn, OR 97068",2,4.3,303
McDonald's,US,45.543827,-122.3976,"1002 NW Frontage Rd, Troutdale, OR 97060",1,3.4,1437
Arby's,US,25.85236,-80.319439,"3333 W Okeechobee Rd, Hialeah, FL 33012",1,3.9,1999
Taco Bell,US,44.272996,-88.470975,"4301 W Wisconsin Ave, Appleton, WI 54913",1,4.1,365
Chick-Fil-A,US,39.630468,-75.666136,"1101 Quintilio Dr, Bear, DE 19701",1,4.6,2839
Burger King,US,39.630185,-75.664759,"1170 Pulaski Hwy, Bear, DE 19701",1,2.7,187
McDonald's,US,44.045685,-122.92846499999999,"5701 Main St, Springfield, OR 97478",2,4.3,501
,US,39.94522,-75.11804000000001,"645 Market St, Camden, NJ 8102",1,4.1,196
McDonald's,US,44.949393,-122.99253799999998,"1598 Hawthorne Ave NE, Salem, OR 97301",1,3.2,2524
McDonald's,US,44.947221,-123.049783,"570 Wallace Rd NW, Salem, OR 97304",1,3.2,1934
Arby's,US,29.637631,-82.338916,"1405 Sw 13th St, Gainesville, FL 32608",1,4,1070
McDonald's,US,44.881341,-123.029824,"5090 Commercial St SE, Salem, OR 97306",1,3.2,1920
McDonald's,US,30.592351,-87.174869,"3540 Highway 90, Milton, FL 32571",1,4.3,551
Sonic Drive-In,US,40.366766,-80.106088,"1027 Washington Pike, Bridgeville, PA 15017",2,4,665
Sonic Drive-In,US,40.255621000000005,-80.153666,"2611 Washington Rd, Canonsburg, PA 15317",1,3.9,1211
McDonald's,US,31.843914,-81.593593,"203 W Oglethorpe Hwy, Hinesville, GA 31313",1,4,883
McDonald's,US,31.828902000000003,-81.617553,"801 Elma G Miles Pkwy, Hinesville, GA 31313",,4.1,
Burger King,US,30.401603,-86.866497,"8590 Navarre Pkwy, Navarre, FL 32566",,5,
McDonald's,US,34.296844,-83.83715500000001,"965 Dawsonville Hwy, Gainesville, GA 30501",,4.1,
McDonald's,US,43.23357,-123.372345,"2125 NW Stewart Pkwy, Roseburg, OR 97470",1,4,950
McDonald's,US,34.357912,-82.94130799999999,"19 W Franklin Pl, Hartwell, GA 30643",2,4.4,445
McDonald's,US,32.282152,-83.465677,"204 Broad St, Hawkinsville, GA 31036",1,3.3,1079
McDonald's,US,44.267184,-121.19426499999999,"895 SW Rimrock Way, Redmond, OR 97756",2,4.3,339
McDonald's,US,45.496867,-122.570625,"9100 SE Powell Blvd, Portland, OR 97266",,4.5,
McDonald's,US,45.534074,-122.660326,"1520 NE Grand Ave, Portland, OR 97232",1,3.2,2209
McDonald's,US,45.518568,-122.474804,"18320 SE Stark St, Portland, OR 97233",1,3.2,1990
McDonald's,US,34.33859,-83.84719399999999,"2501 Thompson Bridge Rd, Gainesville, GA 30501",,5,
McDonald's,US,45.547096999999994,-122.578418,"3330 NE 82nd Ave, Portland, OR 97220",,4.2,
McDonald's,US,34.113731,-83.875289,"7370 Spout Springs Rd, Flowery Branch, GA 30542",2,4.4,1087
McDonald's,US,45.610301,-122.680866,"12005 N Center Ave, Portland, OR 97217",2,4.2,1713
McDonald's,US,31.700146999999998,-83.250732,"143 Ocilla Hwy, Fitzgerald, GA 31750",1,4.1,177
McDonald's,US,34.109957,-82.864359,"300 Elbert St, Elberton, GA 30635",1,3.6,69
McDonald's,US,45.581668,-122.66145900000001,"8011 NE M L King Blvd, Portland, OR 97211",1,3.7,1034
McDonald's,US,45.443493,-122.62877900000001,"10970 SE Oak St, Portland, OR 97222",1,3.6,796
McDonald's,US,45.516651,-122.679915,"1035 SW 6th Ave, Portland, OR 97204",3,4.3,1521
McDonald's,US,45.523,-122.689866,"1831 W Burnside St, Portland, OR 97209",2,4.5,432
McDonald's,US,33.895571999999994,-84.283386,"5220 Buford Hwy NE, Atlanta, GA 30340",1,4.1,296
McDonald's,US,45.586771,-122.73853500000001,"7487 N Ida Ave, Portland, OR 97203",,4.6,
McDonald's,US,45.511068,-122.68294099999999,"1850 SW 6th Ave, Portland, OR 97201",2,4.2,310
McDonald's,US,45.497752,-122.63583700000001,"2875 SE Powell Blvd, Portland, OR 97202",2,4.6,346
McDonald's,US,33.724674,-84.76245899999999,"9502 Highway 5, Douglasville, GA 30135",1,2.9,1667
McDonald's,US,34.677928,-84.47945,"943 Maddox Dr, Ellijay, GA 30540",1,3.2,1488
McDonald's,US,45.368912,-122.601786,"2010 Clackamette Dr, Oregon City, OR 97045",1,3.4,1275
McDonald's,US,45.656863,-118.810088,"900 Southgate, Pendleton, OR 97801",1,3.7,1128
McDonald's,US,33.77819,-84.29584200000001,"830 Commerce Dr, Decatur, GA 30030",1,3.4,1627
McDonald's,US,33.731508000000005,-84.73673000000001,"2726 Chapel Hill Rd, Douglasville, GA 30135",1,3.7,920
McDonald's,US,45.334883000000005,-122.58976499999999,"1450 Molalla Ave, Oregon City, OR 97045",1,3,997
McDonald's,US,44.024706,-116.940583,"1690 E Idaho Ave, Ontario, OR 97914",1,3.8,613
Arby's,US,28.650647999999997,-81.269726,"1305 Tuskawilla Rd, Winter Springs, FL 32708",1,4.2,805
McDonald's,US,43.747162,-122.48635800000001,"47567 Highway 58, Oakridge, OR 97463",1,4.6,259
McDonald's,US,44.647361,-124.053022,"1300 N Coast Hwy, Newport, OR 97365",1,3.3,855
McDonald's,US,34.654579999999996,-84.980898,"142 Carbondale Rd SW, Dalton, GA 30721",1,3.3,892
McDonald's,US,33.868809000000006,-84.841628,"3036 Villa Rica Hwy, Dallas, GA 30157",1,3.3,1538
McDonald's,US,42.371763,-122.85593200000001,"3611 Crater Lake Hwy, Medford, OR 97504",,4.6,
,US,38.292937,-77.513196,"345 Spotsylvania Mall, Fredericksburg, VA 22407",2,3.6,795
McDonald's,US,34.186966,-84.14245600000001,"660 Atlanta Rd, Cumming, GA 30040",1,3.5,869
,US,31.069840999999997,-97.369331,"3111 S 31st St, Temple, TX 76502",1,3.8,646
McDonald's,US,42.339557,-122.872146,"1140 Biddle Rd, Medford, OR 97504",1,3.4,893
McDonald's,US,46.341977,-124.05442,"100 16th St SE, Long Beach, WA 98631",1,3.5,1379
McDonald's,US,33.614464,-83.920178,"2080 Crowell Rd N, Covington, GA 30014",2,3.9,451
Subway,US,35.9784,-77.974215,"104 W Nashville Dr, Nashville, NC 27856",,4.5,
Subway,US,35.646477000000004,-81.26355,"2443 W Nc 10 Hwy, Newton, NC 28658",2,3.9,103
McDonald's,US,33.627899,-83.977799,"2320 Salem Rd SE, Conyers, GA 30013",1,3.3,1323
Subway,US,36.473546,-80.611793,"1408 Edgewood Dr, Mount Airy, NC 27030",,3.9,
Subway,US,35.582983,-80.874128,"336 Williamson Rd, Mooresville, NC 28117",1,4.2,162
Subway,US,35.725336,-81.692565,"1255 Burkemont Ave, Morganton, NC 28655",1,4.2,1653
McDonald's,US,32.5324,-84.96753299999999,"1619 Bradley Park Dr, Columbus, GA 31904",1,4,738
Subway,US,35.262313,-77.64478299999999,"4153 W Vernon Ave, Kinston, NC 28504",1,4,866
McDonald's,US,34.15733,-84.816204,"1130 West Ave, Cartersville, GA 30120",1,3.9,91
McDonald's,US,33.596396,-85.036596,"1175 Bankhead Hwy, Carrollton, GA 30116",1,4.2,686
,US,30.386771999999997,-86.40169499999999,"4600 Opa Locka Ln, Destin, FL 32541",1,4.1,84
McDonald's,US,32.326801,-90.17230699999999,"1350 E Woodrow Wilson Ave, Jackson, MS 39216",,0,
McDonald's,US,35.442178999999996,-77.668133,"1033 Kingold Blvd, Snow Hill, NC 28580",2,4.5,301
Arby's,US,30.7873,-86.55969,"1238 N Ferdon Blvd Ste A, Crestview, FL 32536",1,4.1,137
Subway,US,33.727985,-117.88515100000001,"1442 S Bristol St, Santa Ana, CA 92704",,4.7,
Subway,US,33.6964,-117.88540800000001,"3827 S Bristol St, Santa Ana, CA 92704",1,3.7,741
Subway,US,33.769219,-117.83574399999999,"2403 N Tustin Ave, Santa Ana, CA 92705",1,4.2,326
McDonald's,US,35.909279999999995,-78.727544,"10100 Leesville Rd, Raleigh, NC 27613",1,3.4,294
McDonald's,US,45.64066,-110.57145200000001,"103 Centennial Dr, Livingston, MT 59047",1,3.7,203
McDonald's,US,46.411823,-112.724593,"133 N Interchange, Deer Lodge, MT 59722",2,3.6,5
McDonald's,US,36.329474,-76.226337,"1321 N Road St, Elizabeth City, NC 27909",1,3.2,778
McDonald's,US,35.557833,-80.856348,"107 Gateway Blvd, Mooresville, NC 28117",2,4.6,927
Bob Evans Restaurant,US,28.402169,-81.697288,"2951 S Highway 27, Clermont, FL 34711",,5,
McDonald's,US,35.519613,-78.314004,"1209 N Brightleaf Blvd, Smithfield, NC 27577",1,3.5,903
McDonald's,US,35.276965999999994,-80.794009,"1201 W Sugar Creek Rd, Charlotte, NC 28213",1,3.4,566
McDonald's,US,35.91401,-81.527586,"110 Morganton Blvd SW, Lenoir, NC 28645",1,3.5,2583
McDonald's,US,30.450438000000002,-89.103813,"11401 Highway 49, Gulfport, MS 39503",2,4.2,930
Hardee's,US,35.034764,-83.821833,"58 Highway 64 W, Hayesville, NC 28904",1,3.4,474
McDonald's,US,35.19287,-80.795726,"1035 N Wendover Rd, Charlotte, NC 28211",1,3.5,1431
Hardee's,US,35.238769,-81.19462800000001,"1901 S York Rd, Gastonia, NC 28052",1,3.6,1007
McDonald's,US,32.31227,-90.177959,"1010 N State St, Jackson, MS 39202",1,3.6,1077
Hardee's,US,36.492133,-79.746476,"262 W Kings Hwy, Eden, NC 27288",,4.6,
McDonald's,US,35.822904,-79.822825,"1000 High Point St, Randleman, NC 27317",1,3.1,1444
Hardee's,US,35.6961,-81.230717,"609 Conover Blvd W, Conover, NC 28613",1,3.7,1965
Hardee's,US,35.909908,-78.983714,"6116 Farrington Rd, Chapel Hill, NC 27517",2,4.5,384
Hardee's,US,35.34094,-79.400623,"1018 Monroe St, Carthage, NC 28327",1,3.9,566
McDonald's,US,35.905248,-77.562595,"1500 Western Blvd, Tarboro, NC 27886",1,3.8,295
Hardee's,US,34.545145,-78.785893,"1211 N Main St, Bladenboro, NC 28320",1,4.1,116
Hardee's,US,35.332805,-79.415903,"899 Pinehurst Ave, Carthage, NC 28327",1,4.6,337
McDonald's,US,44.851161,-123.204255,"1315 Monmouth St, Independence, OR 97351",2,4.6,534
McDonald's,US,45.709696,-121.532872,"2101 Cascade Ave, Hood River, OR 97031",1,4.1,335
McDonald's,US,45.711475,-121.499772,"1049 E Marina Way, Hood River, OR 97031",1,3.6,1196
McDonald's,US,45.489761,-122.475544,"900 SW Highland Dr, Gresham, OR 97080",1,3.5,1672
McDonald's,US,44.990019000000004,-122.987467,"4706 Portland Rd NE, Salem, OR 97305",2,4.4,1072
Whataburger,US,32.560257,-96.823426,"1701 S Beckley Rd, Red Oak, TX 75154",1,3.7,662
McDonald's,US,45.383196999999996,-122.58201000000001,"820 E Berkeley St, Gladstone, OR 97027",1,3.5,1224
McDonald's,US,42.437441,-123.30773300000001,"204 NE Beacon Dr, Grants Pass, OR 97526",1,3.4,1786
Arby's,US,42.500184000000004,-83.357749,"27900 Orchard Lake Rd, Farmington, MI 48334",1,4,741
Chick-fil-A,US,35.546412,-77.404309,"4239 Winterville Pkwy, Winterville, NC 28590",1,4.6,1962
McDonald's,US,43.974385999999996,-124.097926,"2060 Highway 101, Florence, OR 97439",1,4.4,369
Krystal,US,32.817347999999996,-83.69834,"3909 Bloomfield Rd, Macon, GA 31206",1,3.4,885
Krystal,US,32.856462,-83.61747199999999,"1140 Gray Hwy, Macon, GA 31211",1,3.5,842
McDonald's,US,44.048015,-123.14583400000001,"3555 W 11th Ave, Eugene, OR 97402",1,3.5,899
McDonald's,US,44.095702,-123.12668700000002,"55 River Ave, Eugene, OR 97404",1,3.4,1572
Krystal,US,30.680252000000003,-83.22093199999999,"1266 Lakes Blvd, Lake Park, GA 31636",1,3.4,926
Chick-fil-A,US,38.868724,-77.144013,"6108C Arlington Blvd, Falls Church, VA 22044",2,4.2,821
McDonald's,US,44.566313,-123.259904,"300 NW 3rd St, Corvallis, OR 97330",1,3.5,1326
McDonald's,US,43.361532000000004,-124.213226,"772 S Broadway, Coos Bay, OR 97420",1,3.7,1562
Krystal,US,33.736384,-84.287184,"1855 Candler Rd, Decatur, GA 30032",1,3.3,1399
Krystal,US,34.189128000000004,-84.137876,"560 Atlanta Road, Cumming, GA 30040",1,3.7,425
Chick-Fil-A,US,39.980981,-82.83474,"6240 E Broad St, Columbus, OH 43213",1,4.5,3973
McDonald's,US,44.048984000000004,-121.331653,"220 SW Century Dr, Bend, OR 97702",1,4.2,347
McDonald's,US,44.020936,-121.32456599999999,"20120 Pinebrook Blvd, Bend, OR 97702",2,3.8,1155
Krystal,US,33.47578,-81.991378,"1555 Walton Way, Augusta, GA 30904",1,3.9,914
Krystal,US,33.46868,-82.075236,"3403 Wrightsboro Road, Augusta, GA 30909",1,3.5,616
Krystal,US,33.513269,-82.05394100000001,"3116 Washington Road, Augusta, GA 30909",1,3.8,1063
McDonald's,US,46.190432,-123.836124,"645 Marine Dr, Astoria, OR 97103",1,3.6,1266
McDonald's,US,44.642616,-123.06475900000001,"3232 Pacific Blvd SE, Albany, OR 97321",1,3.6,1759
Krystal,US,29.656899,-81.668415,"505 N State Road 19, Palatka, FL 32177",1,3.4,1129
Krystal,US,30.478856,-87.20715799999999,"5660 N 9th Ave, Pensacola, FL 32504",1,3.4,914
McDonald's,US,43.376558,-99.85068299999999,"526 E 2nd St, Winner, SD 57580",1,3.8,462
Krystal,US,30.186646000000003,-81.70150699999999,"337 Park Ave, Orange Park, FL 32073",2,4.4,1824
Krystal,US,30.620909,-87.045392,"6663 Carolina Street, Milton, FL 32570",1,4.1,747
McDonald's,US,42.788466,-96.929214,"702 N Dakota St, Vermillion, SD 57069",2,4.4,345
McDonald's,US,43.516712,-96.771109,"3209 S Louise Ave, Sioux Falls, SD 57106",1,3.8,484
McDonald's,US,44.89069,-97.060755,"820 35th Cir SE, Watertown, SD 57201",1,0,0
Krystal,US,30.307027,-81.748163,"5814 Normandy Blvd, Jacksonville, FL 32205",1,3.2,1620
Krystal,US,31.780207,-85.94773599999999,"1263 Highway 231 S, Troy, AL 36081",1,3.7,683
McDonald's,US,44.501289,-103.860878,"131 Ryan Rd, Spearfish, SD 57783",1,3.8,857
Krystal,US,30.282482,-81.723343,"4585 San Juan Avenue, Jacksonville, FL 32210",1,3.4,1135
,US,41.124924,-73.393875,"314 Westport Ave, Norwalk, CT 6851",1,4.3,259
Krystal,US,32.381555999999996,-86.205727,"5650 Atlanta Hwy, Montgomery, AL 36117",1,3.5,968
McDonald's,US,43.529298,-96.688086,"3101 E 26th St, Sioux Falls, SD 57103",2,4.3,973
McDonald's,US,43.514831,-96.77452,"4000 W 41st St, Sioux Falls, SD 57106",1,3.2,1849
McDonald's,US,44.081793,-103.256176,"2223 W Main St, Rapid City, SD 57702",1,3.8,1188
McDonald's,US,44.097617,-103.201638,"1200 N Lacrosse St, Rapid City, SD 57701",1,3.7,292
McDonald's,US,44.09567,-103.150262,"3919 Cheyenne Blvd, Rapid City, SD 57703",1,3.8,1760
Round Table Pizza,US,33.49042,-117.69778400000001,"32525 Golden Lantern St Ste B, Dana Point, CA 92629",2,4.3,369
Pizza Hut,US,33.466063,-117.70340700000001,"34119 Pacific Coast Hwy, Dana Point, CA 92629",2,4.7,68
McDonald's,US,44.370576,-100.360388,"610 W Sioux Ave, Pierre, SD 57501",2,3.6,336
McDonald's,US,43.809754,-99.331061,"200 S Main St, Chamberlain, SD 57325",1,4.3,530
Taco Bell,US,45.942085,-95.312621,"4817 Highway 29 S, Alexandria, MN 56308",2,4.5,339
McDonald's,US,44.311492,-96.778289,"1605 6th St, Brookings, SD 57006",1,4.8,49
,US,33.4645,-117.6845,"34344 Pacific Coast Hwy, Dana Point, CA 92629",1,4.4,828
Taco Bell,US,45.100401,-93.261821,"7295 University Ave NE, Minneapolis, MN 55432",1,4,931
Hardee's,US,41.165002,-85.491461,"526 N Line St, Columbia City, IN 46725",1,3.8,237
Taco Bell,US,44.862427000000004,-93.545212,"975 W 78th St, Chanhassen, MN 55317",1,3.9,818
Taco Bell,US,44.836406,-93.289271,"9230 Lyndale Ave S, Minneapolis, MN 55420",1,4.1,1108
Hardee's,US,39.831094,-89.63085600000001,"1835 E Sangamon Ave, Springfield, IL 62702",1,3.5,451
Hardee's,US,41.779723,-89.689459,"503 1st Ave, Rock Falls, IL 61071",1,3.9,434
Taco Bell,US,43.773454,-91.217936,"4141 Mormon Coulee Ct, La Crosse, WI 54601",1,4.5,1303
Hardee's,US,40.307787,-88.155799,"326 S Century Blvd, Rantoul, IL 61866",2,4.3,442
Taco Bell,US,45.129052,-93.257356,"291 County Road 10 Ne, Minneapolis, MN 55434",1,3.7,953
Taco Bell,US,44.949379,-93.018372,"1940 Suburban Ave, Saint Paul, MN 55119",1,3.9,1124
Taco Bell,US,44.947993,-93.273227,"215 E Lake St, Minneapolis, MN 55408",1,3.5,1422
Taco Bell,US,44.772818,-93.305195,"1901 Highway 13 W, Burnsville, MN 55337",,5,
Jack in the Box,US,33.775878999999996,-118.31678799999999,"2101 Palos Verdes Dr N, Lomita, CA 90717",1,4,191
Taco Bell,US,44.992290000000004,-93.146918,"1101 Larpenteur Ave W, Saint Paul, MN 55113",1,4.4,1179
Hardee's,US,40.157681,-89.376015,"539 Woodlawn Rd, Lincoln, IL 62656",,4.5,
Hardee's,US,38.598766,-89.80814000000001,"501 S Madison St, Lebanon, IL 62254",2,4.5,542
Taco Bell,US,44.748779,-93.380588,"14040 Highway 13 S, Savage, MN 55378",1,3.5,521
Jack in the Box,US,35.353978000000005,-119.33301599999999,"205 Trask St, Bakersfield, CA 93314",1,3.5,789
Jack in the Box,US,33.845788,-118.26494199999999,"20423 Avalon Blvd, Carson, CA 90746",1,4.1,1759
Hardee's,US,41.838775,-89.480586,"619 S Galena Ave, Dixon, IL 61021",1,3.8,627
Hardee's,US,39.845562,-88.972223,"1080 W Eldorado St, Decatur, IL 62522",1,3.5,747
Jack in the Box,US,37.647773,-122.418953,"201 S Spruce Ave, South San Francisco, CA 94080",2,4.2,473
Jack in the Box,US,33.889298,-117.32151200000001,"19586 Van Buren Blvd, Riverside, CA 92508",1,4,791
Jack in the Box,US,33.685315,-117.95395800000001,"19090 Brookhurst St, Huntington Beach, CA 92646",1,4.2,476
Jack in the Box,US,38.744305,-121.254947,"1923 Douglas Blvd, Roseville, CA 95661",1,3.9,877
Hardee's,US,42.499109000000004,-92.330907,"805 Franklin St, Waterloo, IA 50703",1,3.6,738
Hardee's,US,41.985609000000004,-92.579043,"118 W Highway 30, Toledo, IA 52342",1,4.5,240
Hardee's,US,40.964267,-91.541462,"905 E Washington St, Mount Pleasant, IA 52641",2,4.4,8
Hardee's,US,41.922059000000004,-91.417242,"102 Highway 1 S, Mount Vernon, IA 52314",2,4.2,149
Hardee's,US,42.038049,-92.912755,"902 S Center St, Marshalltown, IA 50158",1,3.8,211
Hardee's,US,41.320674,-93.108756,"1002 W Pleasant St, Knoxville, IA 50138",1,4.4,661
Jack in the Box,US,33.996415999999996,-117.90568200000001,"18271 Gale Ave, Rowland Heights, CA 91748",1,4.3,205
Arby's,US,37.00287,-121.55096999999999,"6945 Camino Arroyo, Gilroy, CA 95020",2,4.2,465
Hardee's,US,41.744996,-92.727375,"1019 West St, Grinnell, IA 50112",2,4.4,21
Jack in the Box,US,37.973329,-122.538903,"1814 2nd St, San Rafael, CA 94901",1,3.5,687
Pizza Hut,US,33.901911,-118.299873,"1336 W Rosecrans Ave, Gardena, CA 90247",,4.5,
Arby's,US,39.390724,-84.512034,"3101 Princeton Rd, Hamilton, OH 45011",1,3.7,367
,US,34.092694,-117.43616100000001,"8882 Sierra Ave, Fontana, CA 92335",,4,
Pizza Hut,US,34.084914000000005,-117.43563799999998,"9299 Sierra Ave, Fontana, CA 92335",2,3.7,479
,US,37.562065000000004,-122.010574,"3691 Thornton Ave, Fremont, CA 94536",1,4.1,138
Arby's,US,37.123476000000004,-82.782979,"1766 Highway 119 N, Ermine, KY 41815",1,4.1,244
Arby's,US,38.635851,-83.79123299999999,"1339 Us Hwy 68 S, Maysville, KY 41056",1,4.1,401
Arby's,US,37.654201,-82.272153,"318 Southside Mall, South Williamson, KY 41503",,5,
,US,36.73512,-119.70085,"5560 E Kings Canyon Rd, Fresno, CA 93727",2,3.8,340
Arby's,US,42.629748,-82.914552,"20739 Hall Rd, Macomb, MI 48044",1,4.4,300
Arby's,US,43.803191999999996,-99.394397,"102 East Highway 16, Oacoma, SD 57365",1,3.9,902
Arby's,US,42.956835999999996,-71.43178499999999,"1500 South Willow St, Manchester, NH 3103",1,4.1,374
Arby's,US,34.019276,-94.739067,"709 S Park Dr, Broken Bow, OK 74728",1,4.1,676
Arby's,US,40.768785,-76.223857,"830 Schuylkill Mall, Frackville, PA 17931",1,3.6,1260
Arby's,US,42.313247,-122.860231,"41 E Stewart Ave, Medford, OR 97501",1,4.1,1106
Arby's,US,41.981524,-76.543623,"2303 Elmira St, Sayre, PA 18840",1,4.2,579
Arby's,US,37.084733,-80.69031600000001,"4675 Cleburne Blvd, Dublin, VA 24084",1,4,1053
,US,40.80194,-124.16651999999999,"445 5th St, Eureka, CA 95501",2,4.2,656
Arby's,US,37.979246999999994,-78.210747,"75 Market Street, Gordonsville, VA 22942",1,4,720
Arby's,US,32.502841,-110.92548300000001,"16338 N Oracle Rd, Tucson, AZ 85739",1,3.8,491
Arby's,US,39.423607000000004,-84.584287,"1003 Nw Washington Blvd, Hamilton, OH 45013",1,4,656
Arby's,US,39.191253,-84.254849,"906 State Rd 28, Milford, OH 45150",1,3.9,627
Arby's,US,39.145862,-84.625642,"6271 Glenway Ave, Cincinnati, OH 45211",1,3.9,641
Arby's,US,39.225035999999996,-84.516375,"8657 Winton Rd, Cincinnati, OH 45231",1,3.8,538
Arby's,US,39.500007000000004,-84.350646,"1315 Elliot Dr, Middletown, OH 45042",1,3.9,917
Arby's,US,39.357377,-84.26839,"5561 S State Rte 741, Mason, OH 45040",1,3.8,402
Arby's,US,34.490828,-93.087125,"200 Airport Blvd, Hot Springs National Park, AR 71913",1,4.2,788
Arby's,US,35.175602000000005,-106.592743,"4701 Paseo Del Norte, Albuquerque, NM 87113",1,3.5,190
Arby's,US,37.989576,-85.708683,"1208 E Hwy 44, Shepherdsville, KY 40165",1,3.8,837
Arby's,US,45.229440000000004,-123.17132600000001,"2575 Ne Highway 99 W, McMinnville, OR 97128",1,3.7,714
Burger King,US,36.582443,-79.351877,"1282 S Boston Rd, Danville, VA 24540",1,3.6,761
Arby's,US,38.431621,-90.971016,"1535 Denmark Rd, Union, MO 63084",1,3.7,351
Arby's,US,45.563438,-94.142246,"348 Lincoln Ave SE, Saint Cloud, MN 56301",1,4.1,774
Arby's,US,48.119546,-96.184237,"225 3rd St W, Thief River Falls, MN 56701",1,3.7,496
Arby's,US,43.63511,-95.59441600000001,"1663 N Humiston Ave, Worthington, MN 56187",1,4,564
Baskin-Robbins,US,34.018794,-117.810074,"325 S Diamond Bar Blvd, Diamond Bar, CA 91765",1,4.5,77
Arby's,US,44.166422,-93.950449,"1855 Madison Ave, Mankato, MN 56001",1,4.1,648
Arby's,US,44.006546,-92.475045,"1218 Apache Dr SW, Rochester, MN 55902",1,4.2,815
Arby's,US,45.15777,-93.23415200000001,"10320 Baltimore St NE, Minneapolis, MN 55449",1,4,608
Arby's,US,45.196940999999995,-93.35238100000001,"3385 124th Ave NW, Minneapolis, MN 55433",1,4.1,705
Arby's,US,44.835821,-93.289168,"9240 Lyndale Ave S, Minneapolis, MN 55420",1,3.9,601
Arby's,US,44.965776,-93.349947,"1690 Park Place Blvd, Minneapolis, MN 55416",1,4,762
Arby's,US,45.0977,-93.44775200000001,"7885 Wedgewood Lane, Osseo, MN 55369",1,4.3,563
Arby's,US,44.776371000000005,-93.41555,"8010 Old Carriage Ct, Shakopee, MN 55379",1,4.1,394
Arby's,US,44.728567,-93.218517,"7525 153rd St W, Saint Paul, MN 55124",1,4,721
Arby's,US,44.921734,-93.16668100000001,"654 Snelling Ave S, Saint Paul, MN 55116",1,4.1,504
Arby's,US,44.293146,-93.289314,"313 Lyndale Ave, Faribault, MN 55021",1,4.1,515
Arby's,US,45.035373,-93.01816099999999,"3109 White Bear Ave, Saint Paul, MN 55109",1,4.1,996
Arby's,US,45.391838,-92.854527,"12400 Lake Blvd, Lindstrom, MN 55045",1,4.2,521
Arby's,US,45.572165999999996,-93.194886,"2350 2nd Ave SE, Cambridge, MN 55008",1,4.1,1171
Carl's Jr.,US,34.04919,-117.30848,"1180 S Mount Vernon Ave, Colton, CA 92324",1,4,890
Burger King,US,33.895706,-118.22063,"290 E Compton Blvd, Compton, CA 90220",1,3.6,721
McDonald's,US,32.626971999999995,-117.08742,"619 Broadway, Chula Vista, CA 91910",1,3.7,1221
,US,32.645386,-117.095244,"82 Broadway, Chula Vista, CA 91910",2,4.3,1989
Burger King,US,36.006910999999995,-84.01808100000001,"6706 Clinton Hwy, Knoxville, TN 37912",1,4.5,2424
Burger King,US,38.677958000000004,-121.2652,"8030 Greenback Ln, Citrus Heights, CA 95610",1,3,105
McDonald's,US,39.52263,-122.21168,"236 N Humboldt Ave, Willows, CA 95988",1,4.1,506
In-N-Out Burger,US,33.383365000000005,-111.806379,"1650 S Stapley Dr, Mesa, AZ 85204",1,4.6,3909
In-N-Out Burger,US,34.23081,-118.55311699999999,"8830 Tampa Ave, Northridge, CA 91324",1,4.7,2422
In-N-Out Burger,US,34.249947,-118.502025,"9858 Balboa Blvd, Northridge, CA 91325",1,4.6,2335
In-N-Out Burger,US,38.115581,-121.308422,"2625 W Kettleman Ln, Lodi, CA 95242",1,4.6,2684
In-N-Out Burger,US,36.101698999999996,-115.181949,"4888 Dean Martin Dr, Las Vegas, NV 89103",2,4.2,3659
In-N-Out Burger,US,36.104154,-115.13766899999999,"4705 S Maryland Pkwy, Las Vegas, NV 89119",1,4.6,5068
In-N-Out Burger,US,36.195559,-115.246489,"1960 Rock Springs Dr, Las Vegas, NV 89128",1,4.6,5631
In-N-Out Burger,US,33.924611999999996,-117.92376000000002,"2030 E Lambert Rd, La Habra, CA 90631",1,4.7,1445
In-N-Out Burger,US,34.037558000000004,-117.95154299999999,"15259 Amar Rd, La Puente, CA 91744",1,4.6,2167
In-N-Out Burger,US,33.663594,-117.298456,"331 Railroad Canyon Rd, Lake Elsinore, CA 92532",1,4.6,3919
In-N-Out Burger,US,33.987229,-118.225232,"6000 Pacific Blvd, Huntington Park, CA 90255",1,4.6,7484
In-N-Out Burger,US,34.443144000000004,-119.790749,"4865 Calle Real, Santa Barbara, CA 93111",1,4.6,3736
In-N-Out Burger,US,33.305915,-111.74355800000001,"2449 S Market St, Gilbert, AZ 85295",1,4.6,2889
In-N-Out Burger,US,34.145491,-118.255077,"119 S Brand Blvd, Glendale, CA 91204",1,4.6,2589
In-N-Out Burger,US,33.860445,-117.92383000000001,"1180 S Harbor Blvd, Fullerton, CA 92832",1,4.7,3344
In-N-Out Burger,US,32.81951,-116.961817,"1541 N Magnolia Ave, El Cajon, CA 92020",1,3.7,305
In-N-Out Burger,US,34.075035,-117.435042,"9855 Sierra Ave, Fontana, CA 92335",1,4.7,4829
In-N-Out Burger,US,33.997279999999996,-117.718356,"3927 Grand Ave, Chino, CA 91710",1,4.7,2785
In-N-Out Burger,US,32.981603,-117.077584,"11880 Carmel Mountain Rd, San Diego, CA 92128",1,4.7,2254
Burger King,US,37.694563,-122.08545500000001,"2757 Castro Valley Blvd, Castro Valley, CA 94546",1,3.1,437
Burger King,US,37.294339,-121.95087099999999,"49 W Hamilton Ave, Campbell, CA 95008",1,3.7,665
Pizza Hut,US,33.813652000000005,-118.27606100000001,"23301 Main St, Carson, CA 90745",1,4,190
Church's Chicken,US,33.782920000000004,-118.17667,"1199 E Anaheim St, Long Beach, CA 90813",2,4.4,68
Burger King,US,38.632,-121.3288,"7201 Fair Oaks Blvd, Carmichael, CA 95608",1,3.3,697
Arby's,US,34.19788,-118.606399,"7011 Topanga Canyon Blvd, Canoga Park, CA 91303",1,4.3,827
Burger King,US,40.123976,-111.642624,"815 Chappel Dr, Spanish Fork, UT 84660",2,4.3,2118
Arby's,US,33.911434,-117.865544,"2525 E Imperial Hwy, Brea, CA 92821",1,4.1,733
Burger King,US,40.658326,-111.507084,"1720 Park Ave, Park City, UT 84060",1,3.7,580
Carl's Jr.,US,35.4857,-120.6641,"7085 El Camino Real, Atascadero, CA 93422",1,3.6,425
Burger King,US,35.474274,-120.654576,"8304 El Camino Real, Atascadero, CA 93422",1,3.2,315
Burger King,US,41.072556,-111.978598,"803 N Main St, Layton, UT 84041",1,3.6,1201
Burger King,US,37.176458000000004,-113.300377,"687 W State St, Hurricane, UT 84737",2,4.1,1213
Carl's Jr.,US,32.978699,-115.541252,"115 Main St, Brawley, CA 92227",1,4.1,659
Burger King,US,38.06753,-122.16833700000001,"828 Southampton Rd, Benicia, CA 94510",2,4.1,188
Burger King,US,29.21207,-99.778349,"515 E Main St, Uvalde, TX 78801",1,3.7,260
Burger King,US,34.891771999999996,-117.001755,"1540 E Main St, Barstow, CA 92311",1,3.4,873
Burger King,US,33.872425,-118.118195,"10134 Artesia Blvd, Bellflower, CA 90706",2,4.3,1625
Burger King,US,33.645878,-96.612181,"1213 N Travis St, Sherman, TX 75090",1,4.1,311
Burger King,US,34.084903999999995,-117.965034,"14130 Ramona Blvd, Baldwin Park, CA 91706",1,3.8,72
Chick-Fil-A,US,34.12867,-117.88797,"900 E Alosta Ave, Azusa, CA 91702",1,3.9,1169
Taco Bell,US,41.569334999999995,-87.63619200000001,"17601 Halsted St, Homewood, IL 60430",1,4,994
Pizza Hut,US,34.151796000000004,-118.026629,"121 E Foothill Blvd, Arcadia, CA 91006",2,4.3,766
Pizza Hut,US,34.108449,-118.02535800000001,"161 E Live Oak Ave, Arcadia, CA 91006",,3.7,
Burger King,US,38.00562,-121.755602,"3605 E 18th St, Antioch, CA 94509",1,3.5,985
Taco Bell,US,42.379366999999995,-88.090594,"306 W Rollins Rd, Round Lake, IL 60073",1,3.9,665
Taco Bell,US,42.242169,-88.979761,"2182 S Perryville Rd, Rockford, IL 61112",1,4,787
Taco Bell,US,42.481615999999995,-88.306089,"10710 N Main St, Richmond, IL 60071",1,3.7,498
Taco Bell,US,41.369912,-89.127509,"5257 Trompeter Rd, Peru, IL 61354",2,4.4,864
Taco Bell,US,40.725904,-89.63255699999999,"3101 N Sterling Ave, Peoria, IL 61604",1,3.8,664
Taco Bell,US,41.689687,-87.807139,"7601 W 111th St, Palos Hills, IL 60465",1,3.9,491
Taco Bell,US,40.560185,-89.620775,"1920 Court St, Pekin, IL 61554",1,3.7,1128
McDonald's,US,34.582264,-82.47881,"534 Crawford Rd, Belton, SC 29627",2,4.4,825
Taco Bell,US,42.318766,-87.86646999999999,"2222 Green Bay Rd, North Chicago, IL 60064",1,3.9,397
Taco Bell,US,40.510327000000004,-88.959485,"1527 E College Ave, Normal, IL 61761",1,3.8,229
Taco Bell,US,42.017637,-87.80654799999999,"7535 N Harlem Ave, Niles, IL 60714",2,4.9,11
Taco Bell,US,40.625831,-89.464451,"100 W Ashland St, Morton, IL 61550",1,3.9,707
Baskin-Robbins,US,34.153826,-118.757244,"5697 Kanan Rd, Agoura Hills, CA 91301",2,4.3,224
,US,34.15483,-118.78855,"30651 Thousand Oaks Blvd, Agoura Hills, CA 91301",2,4.8,23
Taco Bell,US,41.71974,-88.319428,"1950 Douglas Rd, Montgomery, IL 60538",1,3.1,907
Taco Bell,US,41.466328999999995,-90.507118,"4650 16th St, Moline, IL 61265",1,4,505
Arby's,US,46.88957,-98.71822,"1801 7th Ave Sw, Jamestown, ND 58401",1,4.1,700
McDonald's,US,39.167615999999995,-76.783963,"7878 Pocomoke Dr, Jessup, MD 20794",1,3.6,1685
Taco Bell,US,41.579390000000004,-88.165058,"3340 Mall Loop Dr, Joliet, IL 60431",1,4,285
,US,64.84024000000001,-147.71043,"414 3rd St, Fairbanks, AK 99701",,3.9,
Taco Bell,US,41.935996,-88.071188,"270 E Army Trail Rd, Glendale Heights, IL 60139",1,4.6,456
Taco Bell,US,42.272672,-89.63141,"1882 S West Ave, Freeport, IL 61032",1,4.2,137
Pizza Hut,US,64.84024000000001,-147.71043,"1991 Airport Way, Fairbanks, AK 99701",,3.9,
McDonald's,US,39.153002,-76.72381700000001,"7053 Arundel Mills Cir, Hanover, MD 21076",2,4.1,3182
Pizza Hut,US,35.212801,-114.035004,"2911 N Stockton Hill Rd, Kingman, AZ 86401",,4.7,
Carl's Jr.,US,61.331815,-149.565417,"12319 Old Glenn Hwy, Eagle River, AK 99577",1,3.4,653
Little Caesars,US,33.262649800000005,-111.7561972,"4844 S Val Vista Dr Ste 104, Gilbert, AZ 85298",2,4,599
Arby's,US,32.806598,-111.67188999999999,"5000 N Sunland Gin Rd, Eloy, AZ 85131",1,4,970
McDonald's,US,39.250777,-76.813101,"4396 Montgomery Rd, Ellicott City, MD 21043",2,4.2,1601
McDonald's,US,39.635133,-75.805571,"226 Belle Hill Rd, Elkton, MD 21921",1,4.1,2072
,US,33.27772,-111.85887,"1880 S Alma School Rd Ste 6, Chandler, AZ 85286",1,4.3,601
McDonald's,US,39.264905999999996,-76.527427,"2222 Dundalk Ave, Dundalk, MD 21222",1,3.6,1338
McDonald's,US,37.991003000000006,-75.844143,"10 Maryland Ave, Crisfield, MD 21817",1,3.4,318
McDonald's,US,39.185679,-76.84341500000001,"7244 Cradlerock Way, Columbia, MD 21045",2,4.3,286
Pizza Hut,US,33.972702000000005,-118.2106,"3176 E Florence Ave, Huntington Park, CA 90255",1,4.1,223
McDonald's,US,39.210178000000006,-76.937833,"6095 Daybreak Cir, Clarksville, MD 21029",1,3.8,553
McDonald's,US,39.225371,-76.07090699999999,"875 Washington Ave, Chestertown, MD 21620",1,3.8,40
McDonald's,US,39.284946000000005,-76.759683,"6447 Baltimore National Pike, Catonsville, MD 21228",1,3.9,690
KFC,US,40.648476,-73.958572,"942 Flatbush Ave, Brooklyn, NY 11226",,4,
KFC,US,40.011978000000006,-75.135868,"4001 N 5th St, Philadelphia, PA 19140",,3.9,
McDonald's,US,38.394034999999995,-122.81868899999999,"801 Gravenstein Ave, Sebastopol, CA 95472",2,4.5,217
McDonald's,US,33.158926,-96.68084499999999,"5001 Mckinney Ranch Pkwy, McKinney, TX 75070",1,3.9,231
Long John Silver's,US,29.497846000000003,-98.320015,"8540 Fm 78, Converse, TX 78109",2,3.6,2307
Long John Silver's,US,26.097551,-97.165667,"2000 Padre Blvd, South Padre Island, TX 78597",2,3.9,2705
Burger King,US,32.448789,-93.781072,"6363 Hearne Ave, Shreveport, LA 71108",1,3.5,410
Long John Silver's,US,30.022184999999997,-95.520915,"7139 Louetta Rd, Spring, TX 77379",1,3.8,486
,US,33.748979999999996,-116.969505,"167 N Carmalita St, Hemet, CA 92543",,3.7,
Long John Silver's,US,27.685067,-97.38294599999999,"5617 Saratoga Blvd, Corpus Christi, TX 78414",,4.8,
Burger King,US,31.345107000000002,-92.517004,"6020 Old Boyce Rd, Alexandria, LA 71303",1,3.2,409
Burger King,US,42.582414,-71.77521800000001,"439 John Fitch Hwy, Fitchburg, MA 1420",1,3.8,503
Burger King,US,42.108163,-72.576647,"489 State St, Springfield, MA 1109",1,3.7,160
Burger King,US,31.936107,-92.653639,"5938 Highway 167 N, Winnfield, LA 71483",1,4.2,104
Burger King,US,32.78127,-91.901043,"1020 E Madison Ave, Bastrop, LA 71220",1,4.3,363
Burger King,US,30.385666999999998,-91.06455799999999,"7004 Siegen Ln, Baton Rouge, LA 70809",1,2.9,403
Burger King,US,32.448172,-93.86524200000001,"6703 Pines Rd, Shreveport, LA 71129",1,3.8,860
Burger King,US,30.433078000000002,-91.057839,"2192 S Sherwood Forest Blvd, Baton Rouge, LA 70816",1,3.2,978
Burger King,US,30.647977,-91.151824,"5131 Main St, Zachary, LA 70791",,3.2,
McDonald's,US,35.07857,-78.940747,"3701 Bragg Blvd, Fayetteville, NC 28303",1,3.4,1906
Burger King,US,30.406769,-91.229842,"4383 La Highway 1 S, Port Allen, LA 70767",1,3.7,322
Taco Bell,US,42.842144,-85.62473100000001,"6728 Kalamazoo Ave SE, Grand Rapids, MI 49508",,4.7,
Burger King,US,30.519384000000002,-92.07499399999999,"943 Creswell Ln, Opelousas, LA 70570",1,4.1,221
Burger King,US,29.968869,-91.835925,"2919 S Lewis St, New Iberia, LA 70560",1,3.8,354
Arby's,US,34.621132,-92.498826,"2903 N Reynolds Rd, Bryant, AR 72022",1,4,749
Burger King,US,39.691607,-77.73881800000001,"18234 Maugans Ave, Hagerstown, MD 21740",1,3.7,503
Burger King,US,39.626191,-77.767691,"17532 Valley Mall Rd, Hagerstown, MD 21740",2,4.4,2075
Burger King,US,39.600468,-77.729678,"10516 Sharpsburg Pike, Hagerstown, MD 21740",1,4.2,704
Burger King,US,39.690789,-79.103802,"2811 Chestnut Ridge Rd, Grantsville, MD 21536",1,3.8,452
Burger King,US,39.637928,-78.832937,"1299 National Hwy, Cumberland, MD 21502",2,4.1,894
Burger King,US,39.642962,-78.909752,"6 Hampton Inn Dr, Frostburg, MD 21532",1,3.6,380
Burger King,US,39.353322,-76.75575400000001,"8022 Liberty Rd, Windsor Mill, MD 21244",1,3.6,774
Burger King,US,39.32338,-76.502491,"8304 Pulaski Hwy, Rosedale, MD 21237",2,4,103
Burger King,US,39.289590999999994,-76.726646,"5604 Baltimore National Pike, Catonsville, MD 21228",1,3.5,960
Burger King,US,39.297176,-76.52934599999999,"6807 Rolling Mill Rd, Baltimore, MD 21224",,2.2,
Burger King,US,39.546763,-76.106205,"990 Pulaski Hwy, Havre de Grace, MD 21078",1,3.1,405
Burger King,US,39.135989,-76.597223,"14 Mountain Rd, Glen Burnie, MD 21060",1,3.4,478
Burger King,US,39.05768,-77.084654,"12265 Veirs Mill Rd, Silver Spring, MD 20906",1,4.9,41
Burger King,US,38.939492,-76.906024,"6505 Annapolis Rd, Hyattsville, MD 20784",1,3.4,217
Burger King,US,38.984017,-76.975083,"2208 University Blvd E, Hyattsville, MD 20783",1,4,725
Baskin-Robbins,US,34.199496999999994,-79.257733,"300 W Mcintyre St, Mullins, SC 29574",1,3.4,302
McDonald's,US,36.158309,-115.16268400000001,"1601 W Charleston Blvd, Las Vegas, NV 89102",1,4,1574
McDonald's,US,39.527755,-119.701355,"2095 Brierley Way, Sparks, NV 89434",1,3.8,1614
McDonald's,US,36.239482,-115.16089299999999,"1408 W Craig Rd, North Las Vegas, NV 89032",1,3.1,2046
McDonald's,US,36.158558,-115.26313200000001,"7851 W Charleston Blvd, Las Vegas, NV 89117",1,3.9,512
McDonald's,US,36.09383,-115.294615,"5200 S Fort Apache Rd, Las Vegas, NV 89148",2,4.6,538
McDonald's,US,36.169828,-115.14284099999999,"301 Fremont St, Las Vegas, NV 89101",1,3.9,729
McDonald's,US,36.195232,-115.161299,"1501 W Lake Mead Blvd, Las Vegas, NV 89106",1,4.1,917
McDonald's,US,36.172774,-115.20043999999999,"4300 Meadows Ln, Las Vegas, NV 89107",1,4,129
McDonald's,US,36.236888,-115.06163600000001,"4215 Las Vegas Blvd N, Las Vegas, NV 89115",1,3.7,1911
McDonald's,US,36.123133,-115.24283899999999,"3626 S Rainbow Blvd, Las Vegas, NV 89103",1,4.1,1262
McDonald's,US,36.188148,-115.115191,"2513 E Owens Ave, North Las Vegas, NV 89030",1,3.4,321
McDonald's,US,36.114851,-115.209048,"4945 W Flamingo Rd, Las Vegas, NV 89103",1,4.7,2056
McDonald's,US,36.100467,-115.22408700000001,"6020 W Tropicana Ave, Las Vegas, NV 89103",,4.3,
McDonald's,US,36.114523,-115.19593400000001,"4321 W Flamingo Rd, Las Vegas, NV 89103",1,3.9,153
McDonald's,US,36.119881,-115.13803100000001,"3815 S Maryland Pkwy, Las Vegas, NV 89119",1,4,2996
McDonald's,US,36.159167,-115.07960600000001,"4400 E Charleston Blvd, Las Vegas, NV 89104",1,3.9,1279
McDonald's,US,36.164519,-115.06323,"201 N Nellis Blvd, Las Vegas, NV 89110",1,4.1,3025
McDonald's,US,36.137324,-115.064924,"2886 S Nellis Blvd, Las Vegas, NV 89121",1,3.7,970
McDonald's,US,36.111142,-115.062752,"5198 Boulder Hwy, Las Vegas, NV 89122",1,4.2,288
McDonald's,US,36.113844,-115.06666499999999,"4934 Boulder Hwy, Las Vegas, NV 89121",1,3.7,2591
McDonald's,US,36.061115,-115.033495,"540 Marks St, Henderson, NV 89014",,4.2,
McDonald's,US,35.971334000000006,-114.849553,"1237 Nevada Hwy, Boulder City, NV 89005",1,3.6,1606
Taco Bell,US,48.203448,-114.30714499999999,"535 E Idaho St, Kalispell, MT 59901",1,3.9,901
Taco Bell,US,47.521028,-111.308274,"1601 3rd St NW, Great Falls, MT 59404",,0,
Taco Bell,US,32.282241,-90.11833299999999,"3051 Highway 80 E, Pearl, MS 39208",1,3.4,598
Taco Bell,US,34.189784,-90.577591,"614 S State St, Clarksdale, MS 38614",1,3.7,296
Taco Bell,US,40.116302000000005,-88.220945,"1003 W University Ave, Urbana, IL 61801",1,3.7,956
Taco Bell,US,32.697157000000004,-114.62463799999999,"1676 S 4th Ave, Yuma, AZ 85364",1,4.2,832
Taco Bell,US,32.350373,-110.97578999999999,"7915 N Oracle Rd, Tucson, AZ 85704",1,4,360
Taco Bell,US,32.356885,-111.09143200000001,"8270 N Cortaro Rd, Tucson, AZ 85743",1,4.5,399
Taco Bell,US,32.286587,-110.96425900000001,"495 E Wetmore Rd, Tucson, AZ 85705",1,4.5,559
Taco Bell,US,32.162055,-110.94266,"4951 S Campbell Ave, Tucson, AZ 85706",1,4,691
Taco Bell,US,32.207496,-110.85754299999999,"1111 S Wilmot Rd, Tucson, AZ 85711",,4.8,
Taco Bell,US,32.250912,-110.918865,"3455 E Grant Rd, Tucson, AZ 85716",1,3.9,1637
Taco Bell,US,33.363763,-111.911152,"1801 E Guadalupe Rd, Tempe, AZ 85283",1,3.8,335
Taco Bell,US,33.609206,-112.35674099999999,"13752 W Waddell Rd, Surprise, AZ 85379",2,4.6,247
Taco Bell,US,33.537572999999995,-111.885038,"9059 E Indian Bend Rd, Scottsdale, AZ 85250",1,4.1,395
Taco Bell,US,33.613253,-111.92634699999999,"14002 N Scottsdale Rd, Scottsdale, AZ 85254",1,4.5,75
Taco Bell,US,33.40627,-111.97886299999999,"4430 S 48th St, Phoenix, AZ 85040",1,4,1251
Taco Bell,US,33.639046,-112.14991100000002,"4209 W Bell Rd, Phoenix, AZ 85053",1,3.7,785
Taco Bell,US,34.227995,-87.621764,"2102 11th Ave, Haleyville, AL 35565",1,3.3,874
Taco Bell,US,31.855389000000002,-86.640842,"1017 Fort Dale Rd, Greenville, AL 36037",1,3.6,724
Taco Bell,US,33.557866,-86.889551,"1101 Forestdale Blvd, Birmingham, AL 35214",1,3.6,799
Taco Bell,US,44.555863,-88.057722,"1897 Velp Ave, Green Bay, WI 54303",1,3.8,976
Taco Bell,US,44.522663,-88.062164,"1529 W Mason St, Green Bay, WI 54303",1,3,813
Taco Bell,US,44.462654,-88.117323,"1501 W Main Ave, De Pere, WI 54115",1,4.1,249
Taco Bell,US,43.783309,-88.412355,"892 E Johnson St, Fond du Lac, WI 54935",1,3.8,452
Burger King,US,42.256217,-83.241127,"20905 Ecorse Rd, Taylor, MI 48180",1,3.5,573
Burger King,US,42.213722,-83.229223,"12900 Allen Rd, Taylor, MI 48180",1,3.7,666
Burger King,US,42.223662,-83.385421,"10939 Wayne Rd, Romulus, MI 48174",1,3.4,588
Burger King,US,42.395612,-83.485614,"44475 Five Mile Rd, Plymouth, MI 48170",,1,
Burger King,US,42.297903999999996,-83.284666,"25300 Michigan Ave, Dearborn, MI 48124",1,3.5,1000
Burger King,US,42.284725,-83.83849599999999,"151 S Zeeb Rd, Ann Arbor, MI 48103",1,4.2,314
Burger King,US,42.472813,-82.905312,"24201 Harper Ave, Saint Clair Shores, MI 48080",1,3.3,957
Burger King,US,44.829194,-69.296653,"530 Oxbow Rd, Palmyra, ME 4965",1,3.8,95
Burger King,US,46.700549,-68.010114,"795 Main St, Presque Isle, ME 4769",1,4,342
Burger King,US,44.538525,-68.415028,"205 High St, Ellsworth, ME 4605",1,4.1,269
Burger King,US,43.419098,-70.755742,"1252 Main St, Sanford, ME 4073",1,3.9,623
,US,44.948776,-93.28851,"2936 Lyndale Ave S, Minneapolis, MN 55408",2,4.5,2306
